Time (s),Roll (deg.),Pitch (deg.),Yaw (deg.),Altitude (m),Pressure (Pa),Temeprature (C)
1697045025.7426116,15.0,-10.4375,323.3125,27.66424197915164,1009.8993691126088,35.75541863730177
1697045056.4373486,358.375,-1.0,326.75,27.242200776894492,1009.9196375797906,35.91883843205869
1697045056.5076072,358.375,-1.0,326.75,27.83274626781804,1009.96006561502,35.93208840629086
1697045056.5716074,358.375,-1.0,326.75,28.33893269619123,1009.9701589874335,35.949754973407835
1697045056.631979,358.375,-1.0,326.75,27.748579400813473,1009.9802654678867,35.958588229026645
1697045056.6908073,358.375,-1.0,326.75,27.664268054809806,1009.9094881175836,35.958588229026645
1697045056.7498732,358.375,-1.0,326.75,28.339110034282562,1009.8791515803744,35.958588229026645
1697045056.8083782,358.375,-1.0,326.75,28.17049143948835,1009.9296994810231,35.967421466019005
1697045056.867749,358.375,-1.0,326.75,28.17049143948835,1009.9296994810231,35.967421466019005
1697045056.9275544,358.375,-1.0,326.75,28.17049143948835,1009.9499107618767,35.97625468438491
1697045056.9867363,358.375,-1.0,326.75,27.748755953642352,1009.8488143083117,35.97625468438491
1697045057.0454094,358.375,-1.0,326.75,28.17049143948835,1009.8993621554063,35.98067128658295
1697045057.1037443,358.375,-1.0,326.75,27.748755953642352,1009.8690240949393,35.971838077530265
1697045057.1621737,358.375,-1.0,326.75,28.17049143948835,1009.8690240949393,35.97625468438491
1697045057.2206912,358.375,-1.0,326.75,27.748755953642352,1009.8690240949393,35.97625468438491
1697045057.279009,358.375,-1.0,326.75,27.411339148955317,1009.858919211948,35.97625468438491
1697045057.338042,358.375,-1.0,326.75,27.917569962356175,1009.9094674119532,35.97625468438491
1697045057.3968246,358.375,-1.0,326.75,27.664448411833227,1009.9296778630998,35.98508788412437
1697045057.4553616,358.375,-1.0,326.75,27.495835894231746,1009.96001637133,35.98067128658295
1697045057.51889,358.375,-1.0,326.75,27.664448411833227,1009.8690240949393,35.97625468438491
1697045057.5776348,358.375,-1.0,326.75,27.917569962356175,1009.9499107618767,35.98067128658295
1697045057.6363914,358.375,-1.0,326.75,28.00187626607115,1009.8892337989781,35.97625468438491
1697045057.6950438,358.375,-1.0,326.75,27.495835894231746,1009.9094674119532,35.99392106523737
1697045057.753764,358.375,-1.0,326.75,27.411339148955317,1009.96001637133,35.98067128658295
1697045057.8124306,358.375,-1.0,326.75,27.833264513986684,1009.8689986421019,35.99392106523737
1697045057.87089,358.375,-1.0,326.75,28.508153756953078,1009.9094434204167,35.98950447700918
1697045057.9297688,358.375,-1.0,326.75,27.833264513986684,1009.990333075777,35.98067128658295
1697045057.9886742,358.375,-1.0,326.75,28.339314787854082,1009.8689986421019,35.98508788412437
1697045058.0473282,358.375,-1.0,326.75,28.508153756953078,1009.8993386200237,35.98508788412437
1697045058.105487,358.375,-1.0,326.75,28.170703801301386,1009.9701219601318,35.99392106523737
1697045058.164208,358.375,-1.0,326.75,28.676763977974005,1010.0105660900758,35.99392106523737
1697045058.2227297,358.375,-1.0,326.75,27.07411258269865,1009.8892337989781,35.99392106523737
1697045058.2813096,358.375,-1.0,326.75,28.339546957200938,1009.7375611984061,35.98508788412437
1697045058.340455,358.375,-1.0,326.75,28.00209623604207,1009.8083457694598,35.98950447700918
1697045058.3995044,358.375,-1.0,326.75,28.170703801301386,1009.9094434204167,35.98508788412437
1697045058.4580317,358.375,-1.0,326.75,28.086399591011286,1009.8588942152594,35.99392106523737
1697045058.520752,358.375,-1.0,326.75,28.086399591011286,1009.8993386200237,35.99392106523737
1697045058.579587,358.375,-9.0,326.75,28.339546957200938,1009.879103048293,35.99392106523737
1697045058.6381385,358.375,-1.0,326.75,27.496051273732327,1009.9397830576974,35.99392106523737
1697045058.6968014,358.375,-1.0,326.75,29.01448040766806,1009.7780055044522,35.98950447700918
1697045058.7553806,358.375,-1.0,326.75,27.833264513986684,1009.8588942152594,35.99392106523737
1697045058.8138273,358.375,-1.0,326.75,28.00209623604207,1009.8083457694598,35.99392106523737
1697045058.8723953,358.375,-1.0,326.75,27.664656183220192,1009.9195482001567,36.007170801982284
1697045058.9318702,358.375,-1.0,326.75,28.67700834748386,1009.8285538966953,36.002754227723926
1697045058.9910283,358.375,-1.0,326.75,28.508153756953078,1010.0307779528259,36.007170801982284
1697045059.0499384,358.375,-1.0,326.75,28.67700834748386,1009.8487619413278,36.007170801982284
1697045059.1086988,358.375,-1.0,326.75,28.339546957200938,1010.0105441087994,36.007170801982284
1697045059.1674788,358.375,-1.0,326.75,27.664656183220192,1009.9296529592419,36.01158737158403
1697045059.2258947,358.375,-1.0,326.75,27.833492092041702,1009.9498882316409,36.007170801982284
1697045059.2847602,358.375,-1.0,326.75,28.170943578688068,1009.879103048293,36.002754227723926
1697045059.343754,358.375,-1.0,326.75,27.327449785508325,1009.9094434204167,36.007170801982284
1697045059.4031167,358.375,-0.9375,326.8125,27.664656183220192,1009.8689699033441,36.002754227723926
1697045059.4624596,358.375,-0.9375,326.8125,28.00209623604207,1009.8689986421019,36.002754227723926
1697045059.5265312,358.375,-0.9375,326.8125,27.496051273732327,1009.8892074338303,36.007170801982284
1697045059.586217,358.375,-1.0,326.75,28.339546957200938,1009.9498624154417,36.007170801982284
1697045059.645074,358.375,-1.0,326.75,28.845878560149863,1009.9296529592419,36.01158737158403
1697045059.7039342,358.375,-1.0,326.75,27.496051273732327,1009.9195204665048,36.01158737158403
1697045059.7625508,358.375,-1.0,326.75,27.833492092041702,1009.8689699033441,36.007170801982284
1697045059.8212593,358.375,-1.0,326.75,28.677280133797154,1009.8892074338303,36.01158737158403
1697045059.8794625,358.375,-1.0,326.75,27.664891369275686,1009.9599671125529,36.01600393652916
1697045059.938687,358.375,-1.0,326.75,27.24315032435552,1009.828523696659,36.01158737158403
1697045059.9978104,358.375,-1.0,326.75,28.086643172390826,1009.8892074338303,36.01158737158403
1697045060.0569766,358.375,-1.0,326.75,28.170943578688068,1009.7172877298912,36.01600393652916
1697045060.115626,358.375,-1.0,326.75,28.002343621394793,1009.8689699033441,36.01600393652916
1697045060.1742406,358.375,-1.0,326.75,28.002343621394793,1009.828523696659,36.01158737158403
1697045060.2328126,358.375,-1.0,326.75,28.002343621394793,1009.8082839080984,36.02042049681768
1697045060.2914605,6.375,-1.0,326.75,27.74919130300563,1009.8386272731389,36.01158737158403
1697045060.350312,358.375,-1.0,326.75,27.41175010196726,1009.970071789003,36.02042049681768
1697045060.4090252,358.375,-1.0,326.75,27.918044925685212,1009.9195204665048,36.01600393652916
1697045060.4691758,358.375,-1.0,326.8125,27.327449785508325,1009.9195204665048,36.01600393652916
1697045060.531142,358.375,-1.0,326.75,27.15885171850392,1009.8891777827317,36.01158737158403
1697045060.5902114,358.3125,-1.0625,326.6875,28.17121077197307,1009.9296247694117,36.01158737158403
1697045060.649029,358.3125,-1.0625,326.6875,28.002343621394793,1009.828523696659,36.02042049681768
1697045060.7082605,358.3125,-1.0625,326.6875,28.255508229662286,1009.9094161429379,36.01600393652916
1697045060.7746155,358.3125,-1.0625,326.6875,28.339806542637955,1009.8891777827317,36.01158737158403
1697045060.8479767,358.3125,-1.0625,326.6875,28.677280133797154,1009.8386272731389,36.01600393652916
1697045060.9185634,358.375,-1.0625,326.6875,27.74919130300563,1009.828523696659,36.02042049681768
1697045060.9784842,358.375,-1.0625,326.6875,28.002343621394793,1009.9296247694117,36.02042049681768
1697045061.0395036,358.375,-1.0625,326.6875,28.339806542637955,1009.9195204665048,36.024837052449584
1697045061.0984836,358.3125,-1.0625,326.6875,27.15885171850392,1009.8082839080984,36.02042049681768
1697045061.159422,358.3125,-1.0625,326.6875,28.002343621394793,1009.9296247694117,36.02925360342488
1697045061.2181501,358.3125,-1.0625,326.6875,27.918044925685212,1009.9397290516577,36.02925360342488
1697045061.2767568,358.3125,-1.0625,326.6875,28.086914169565382,1009.8891777827317,36.02925360342488
1697045061.33558,358.3125,-1.0625,326.6875,28.17121077197307,1009.8891777827317,36.024837052449584
1697045061.3942025,358.3125,-1.0625,326.6875,27.83374708527684,1010.0509659269254,36.02042049681768
1697045061.4899337,358.3125,-1.0625,326.6875,27.833492092041702,1009.8487619413278,36.01158737158403
1697045061.5880265,358.3125,-1.0625,326.6875,27.918044925685212,1009.828523696659,36.01600393652916
1697045061.651466,358.3125,-1.0625,326.6875,28.255508229662286,1009.8487308289612,36.02925360342488
1697045061.710268,358.375,-1.0625,326.6875,28.50868512858041,1009.970071789003,36.02042049681768
1697045061.7693448,358.375,-1.0625,326.6875,28.424388908891878,1009.909385579479,36.02925360342488
1697045061.8281384,358.375,-1.0625,326.6875,28.340093544475042,1009.9498333132406,36.02925360342488
1697045061.8865757,358.375,-1.0625,326.6875,27.2434045300654,1009.8790413724688,36.03367014974356
1697045061.9459655,358.375,-1.0625,326.6875,27.665153970309618,1009.8689378786278,36.04250322841108
1697045062.0044868,358.375,-1.0625,326.6875,27.91832353057985,1009.8486964306294,36.038086691405624
1697045062.063031,358.375,-1.0625,326.6875,27.580858695750763,1009.909385579479,36.038086691405624
1697045062.1217575,358.375,-1.0625,326.75,27.665153970309618,1009.8587995096059,36.038086691405624
1697045062.1803737,358.375,-1.0,326.75,28.00261842243431,1009.8891448456462,36.02925360342488
1697045062.2391026,358.375,-1.0,326.75,28.2557990353299,1009.8790413724688,36.02925360342488
1697045062.2980864,358.375,-1.0625,326.75,27.83402949399709,1009.9194894468582,36.038086691405624
1697045062.3571799,358.3125,-1.125,326.6875,28.17150538145153,1009.8891448456462,36.038086691405624
1697045062.4167948,358.3125,-1.125,326.625,28.340093544475042,1009.8891448456462,36.04250322841108
1697045062.478622,358.3125,-1.125,326.6875,28.2557990353299,1009.8992482981587,36.04250322841108
1697045062.5411613,358.375,-1.0625,326.6875,27.91832353057985,1009.8486964306294,36.04250322841108
1697045062.6004834,358.4375,-1.0625,326.6875,28.17150538145153,1009.8891448456462,36.038086691405624
1697045062.6597579,358.625,-1.0625,326.6875,27.91832353057985,1009.8891448456462,36.04250322841108
1697045062.7181542,358.875,-1.0625,326.6875,27.412270712457975,1009.8689025679171,36.038086691405624
1697045062.7760432,359.25,-1.125,326.75,28.50899193960415,1010.0306994137363,36.04691976075992
1697045062.8340974,359.75,-1.1875,326.5625,27.15910972808368,1009.8992482981587,36.04691976075992
1697045062.8920176,0.1875,-1.3125,326.4375,28.17150538145153,1009.9700417744115,36.04691976075992
1697045062.950578,0.5,-1.5,326.375,27.243686150247044,1009.8891448456462,36.05133628845215
1697045063.009287,0.875,-1.75,326.25,28.846489169237095,1009.9396971196214,36.04250322841108
1697045063.067742,1.125,-1.875,325.9375,28.17150538145153,1009.9093517300041,36.04691976075992
1697045063.1259546,1.375,-1.8125,325.875,28.17150538145153,1009.9396971196214,36.038086691405624
1697045063.183818,1.5,-1.6875,326.0,28.846489169237095,1009.8486964306294,36.05133628845215
1697045063.242215,1.5625,-1.6875,326.0,28.4246995236822,1009.8587995096059,36.038086691405624
1697045063.3012638,1.625,-1.6875,326.125,28.50899193960415,1009.9801459739963,36.04691976075992
1697045063.3596854,1.6875,-1.625,326.25,28.002920639470524,1009.8486964306294,36.05133628845215
1697045063.4181058,1.6875,-1.5,326.4375,28.0872125828301,1009.8689025679171,36.04691976075992
1697045063.4765723,1.625,-1.4375,326.4375,28.50899193960415,1009.9801459739963,36.04691976075992
1697045063.5400238,1.3125,-1.4375,326.5,28.17150538145153,1009.7880043424693,36.04691976075992
1697045063.598123,1.0,-1.4375,326.5,27.83402949399709,1009.889108622537,36.04691976075992
1697045063.6564016,0.625,-1.375,326.5625,28.002920639470524,1009.9700084737527,36.06016932986677
1697045063.7152598,0.3125,-1.25,326.75,28.002920639470524,1009.8486587462951,36.04691976075992
1697045063.7732825,0.0625,-1.1875,327.25,28.002920639470524,1009.9194551411815,36.055752811487764
1697045063.8311138,359.875,-1.1875,327.25,28.593615635320802,1009.8284534387394,36.055752811487764
1697045063.8884802,359.6875,-1.125,327.3125,28.593615635320802,1009.889108622537,36.055752811487764
1697045063.9466076,359.625,-1.125,327.3125,28.256117257599264,1009.808208902962,36.04691976075992
1697045064.0049243,359.5625,-1.125,327.3125,28.593615635320802,1009.9700084737527,36.055752811487764
1697045064.0635347,359.5625,-1.125,327.3125,28.002920639470524,1009.808208902962,36.04691976075992
1697045064.122532,359.5625,-1.125,327.3125,28.256117257599264,1009.8790056055614,36.055752811487764
1697045064.1817253,359.5625,-1.125,327.3125,27.83433931851235,1009.889108622537,36.055752811487764
1697045064.2399528,359.5625,-1.125,327.3125,28.002920639470524,1009.9194551411815,36.05133628845215
1697045064.2989872,359.5625,-1.125,327.3125,27.91862955136789,1009.889108622537,36.04691976075992
1697045064.357914,359.5625,-1.125,327.3125,27.91862955136789,1009.7981066330487,36.055752811487764
1697045064.4168413,359.5625,-1.125,327.3125,28.593615635320802,1009.9700084737527,36.055752811487764
1697045064.478572,359.5625,-1.125,327.3125,27.83433931851235,1009.808208902962,36.055752811487764
1697045064.5417118,359.5,-1.125,327.3125,28.931124685314643,1009.7981066330487,36.055752811487764
1697045064.5998015,359.3125,-1.125,327.3125,28.171827407428445,1009.9700084737527,36.0734188570641
1697045064.6580858,359.125,-1.125,327.3125,27.750049940908827,1009.9801122171203,36.06458584358916
1697045064.7167482,358.9375,-1.125,327.3125,27.496861900309188,1009.8992116188426,36.0734188570641
1697045064.774765,358.6875,-1.125,327.3125,28.171827407428445,1009.747555279105,36.06458584358916
1697045064.8325837,358.5625,-1.125,327.25,28.171827407428445,1009.9194175494371,36.055752811487764
1697045064.8909156,358.625,-1.125,327.25,28.5093261678347,1009.8284133807839,36.055752811487764
1697045064.9496355,358.5625,-1.125,327.25,28.340749798569362,1009.8992116188426,36.055752811487764
1697045065.0093732,358.5625,-1.125,327.25,27.328283234999482,1009.8789665526083,36.06016932986677
1697045065.0682232,358.625,-1.125,327.25,27.83433931851235,1009.9396619015253,36.06458584358916
1697045065.1268363,358.625,-1.125,327.25,27.15970799067817,1009.9295204837233,36.06458584358916
1697045065.1855392,358.625,-1.125,327.3125,27.83433931851235,1009.889108622537,36.06458584358916
1697045065.2442257,358.625,-1.125,327.3125,27.750049940908827,1009.8688639711754,36.06016932986677
1697045065.3030498,358.625,-1.125,327.3125,28.171827407428445,1009.9497262902645,36.0734188570641
1697045065.3613896,358.5625,-1.125,327.25,28.087538412499804,1009.9093145944767,36.08225185191259
1697045065.4200113,358.5625,-1.125,327.25,28.340749798569362,1009.8688639711754,36.08225185191259
1697045065.4784098,358.5625,-1.125,327.3125,27.83433931851235,1009.8688639711754,36.0734188570641
1697045065.5421402,358.5625,-1.0625,327.375,27.07510500908846,1009.9497652506888,36.0734188570641
1697045065.601737,358.5625,-1.0625,327.3125,28.171827407428445,1009.9093145944767,36.08225185191259
1697045065.6606934,358.5625,-1.0,327.375,28.5093261678347,1009.9194175494371,36.08225185191259
1697045065.719636,358.5625,-1.0,327.4375,28.256462896780288,1010.0002816863587,36.06458584358916
1697045065.783671,358.5625,-1.0625,327.5,27.665761418547486,1009.8688639711754,36.07783535681665
1697045065.8463647,358.5625,-1.0625,327.5,28.256462896780288,1009.9901784405828,36.0734188570641
1697045065.9062846,358.5625,-1.0,327.5625,28.341119051446412,1009.9194175494371,36.08225185191259
1697045065.965016,358.5625,-0.875,327.75,28.087891658884402,1009.8385155886895,36.07783535681665
1697045066.023511,358.5,-0.75,328.375,28.340749798569362,1009.9295204837233,36.07783535681665
1697045066.081965,358.5,-0.5625,329.3125,27.328615881479642,1009.8890691133678,36.091084828134626
1697045066.1404884,358.5625,-0.3125,330.4375,28.172176850223554,1009.8385155886895,36.08225185191259
1697045066.1982512,358.6875,-0.0625,331.25,28.087891658884402,1009.9295204837233,36.091084828134626
1697045066.256338,358.875,0.1875,332.0,28.003607322767753,1009.9699320140883,36.08225185191259
1697045066.3159556,359.125,0.5,332.5625,27.160048244312712,1009.9092741728595,36.08225185191259
1697045066.3743083,359.375,0.875,333.0625,28.340749798569362,1009.9497262902645,36.08666834235191
1697045066.4325025,359.625,1.3125,333.625,28.003607322767753,1009.8890691133678,36.07783535681665
1697045066.4905188,0.0,2.0625,334.375,26.9911361673059,1009.9699320140883,36.08225185191259
1697045066.5526419,0.4375,2.8125,335.375,27.41290098289686,1009.8486177759229,36.08666834235191
1697045066.6130078,1.0,3.875,336.6875,28.256462896780288,1009.8587613690705,36.0734188570641
1697045066.710179,1.4375,5.1875,339.25,27.83433931851235,1009.808208902962,36.06016932986677
1697045066.8077826,1.625,6.5,342.5625,28.67790595804908,1009.9295585316889,36.0734188570641
1697045066.9050767,1.5625,7.625,345.125,28.5093261678347,1009.9194551411815,36.055752811487764
1697045067.0027564,1.6875,8.5625,346.9375,28.5093261678347,1009.9801122171203,36.055752811487764
1697045067.1000495,2.3125,9.0,348.125,28.002920639470524,1009.808208902962,36.06016932986677
1697045067.197485,3.375,9.375,348.8125,27.83433931851235,1009.9295585316889,36.055752811487764
1697045067.2949424,4.5,9.75,349.375,27.412572140035707,1009.808208902962,36.06458584358916
1697045067.392481,5.5625,10.5,349.75,28.087538412499804,1009.8183111522076,36.055752811487764
1697045067.4918733,6.75,12.0,350.0625,28.256117257599264,1009.7778609682521,36.0734188570641
1697045067.5853267,7.8125,13.375,350.625,27.75039098513817,1009.7576137595752,36.08225185191259
1697045067.6433418,8.5625,14.25,351.0625,27.666106266371237,1009.8789242135729,36.091084828134626
1697045067.7010832,9.25,14.875,351.5625,26.65366712308263,1009.8890263181011,36.09991778573021
1697045067.759016,10.0,15.5625,352.25,26.822567764862995,1009.8485735194745,36.095501309260726
1697045067.8172572,10.875,16.125,353.0,28.003607322767753,1009.8991284019494,36.091084828134626
1697045067.875504,11.6875,16.625,353.75,28.341515721953314,1009.8991284019494,36.095501309260726
1697045067.9336379,12.5625,17.125,354.5625,27.66647853040321,1009.9496840436923,36.10875072469935
1697045067.9922152,13.3125,17.625,355.0625,27.66647853040321,1009.8182220905671,36.10433425754309
1697045068.049697,14.25,18.375,355.625,28.341515721953314,1009.8687769194515,36.09991778573021
1697045068.1078198,15.1875,19.3125,355.875,27.328975943454747,1009.990137655182,36.095501309260726
1697045068.1659565,16.1875,20.3125,356.125,27.328975943454747,1010.0103432135336,36.10875072469935
1697045068.2246473,17.0,21.4375,356.1875,28.25723642713169,1009.8283234066971,36.10433425754309
1697045068.282682,17.9375,22.4375,356.5625,27.244695500751135,1009.909230465116,36.10875072469935
1697045068.3415258,18.8125,23.1875,357.125,26.991484028021038,1009.9294345293985,36.10433425754309
1697045068.3994226,19.8125,23.875,357.9375,28.00399178964366,1009.8283234066971,36.10433425754309
1697045068.457365,20.8125,24.5625,358.75,28.25723642713169,1009.9597864596938,36.10875072469935
1697045068.5194092,21.875,25.3125,359.625,27.328975943454747,1009.8788785884182,36.10433425754309
1697045068.5781102,23.0,26.0625,0.375,27.66647853040321,1009.9294345293985,36.10875072469935
1697045068.6363728,24.1875,26.875,1.1875,27.49791926543544,1009.9698888550088,36.113167187199
1697045068.6943617,25.375,27.6875,1.875,26.654002783315022,1009.9193325075997,36.09991778573021
1697045068.7520041,26.375,28.375,2.375,27.58219847032037,1009.9496385109359,36.113167187199
1697045068.809899,27.5,29.125,2.875,27.4132572413661,1009.9294345293985,36.113167187199
1697045068.8682752,28.5625,29.875,3.375,27.58219847032037,1009.9294345293985,36.10875072469935
1697045068.9266756,29.75,30.625,3.875,27.66647853040321,1009.8990818642986,36.10433425754309
1697045068.9848716,30.9375,31.5,4.375,28.25723642713169,1009.9698888550088,36.10875072469935
1697045069.0428014,31.9375,32.375,4.75,27.49791926543544,1009.9294345293985,36.113167187199
1697045069.1000607,33.1875,33.6875,5.0625,27.83543328992235,1010.0305486891309,36.11758364504203
1697045069.157897,34.625,35.0,5.3125,27.83543328992235,1009.939536530511,36.113167187199
1697045069.2162743,36.125,36.3125,5.625,28.00399178964366,1009.9496385109359,36.113167187199
1697045069.2748709,37.75,37.625,5.875,27.32936342123962,1009.939536530511,36.10875072469935
1697045069.3330362,39.1875,38.5625,6.1875,26.82292323257018,1009.90918347121,36.113167187199
1697045069.3909326,40.9375,39.4375,6.5625,26.991859303832666,1009.8889802367008,36.122000098228455
1697045069.4505546,42.875,40.0625,7.1875,27.666878210953314,1009.9294345293985,36.11758364504203
1697045069.512461,44.75,40.5625,7.6875,27.83543328992235,1009.9900935835757,36.11758364504203
1697045069.571057,46.125,41.625,7.8125,28.08868040302806,1009.9496385109359,36.126416546758264
1697045069.6299207,47.375,42.9375,7.8125,27.413640915743496,1010.0103432135336,36.113167187199
1697045069.6879067,48.75,44.0,7.875,27.413640915743496,1009.9900935835757,36.11758364504203
1697045069.7456512,50.25,44.375,8.25,27.413640915743496,1009.9496385109359,36.11758364504203
1697045069.8031101,52.0,44.75,8.8125,27.245086781923813,1010.0102982293802,36.122000098228455
1697045069.861168,53.625,44.9375,9.375,28.004403673746047,1009.9496385109359,36.11758364504203
1697045069.920009,55.375,45.5625,10.125,27.32936342123962,1009.9293866229667,36.126416546758264
1697045069.9788198,56.8125,46.6875,11.0,27.413640915743496,1009.9294345293985,36.126416546758264
1697045070.0369267,58.375,47.625,11.8125,27.666878210953314,1009.8687284643962,36.11758364504203
1697045070.0952148,59.625,48.3125,12.5,27.245086781923813,1009.8788296771075,36.126416546758264
1697045070.1529942,61.25,49.1875,13.375,27.245086781923813,1009.8788296771075,36.11758364504203
1697045070.2111824,62.75,50.1875,14.125,27.32936342123962,1009.9597404706714,36.122000098228455
1697045070.2695127,64.25,50.9375,15.0625,27.32936342123962,1009.8282734904932,36.11758364504203
1697045070.3285117,65.625,51.8125,16.0625,27.160810997796077,1009.9496385109359,36.126416546758264
1697045070.3867247,67.125,52.625,16.9375,27.498326552707038,1009.9597404706714,36.126416546758264
1697045070.4444087,69.75,53.0625,17.9375,27.413640915743496,1009.9698424097161,36.122000098228455
1697045070.502053,72.6875,52.9375,18.75,27.5826019542386,1009.8889308691304,36.126416546758264
1697045070.564454,75.25,52.6875,19.375,27.92012779964227,1009.9192850574333,36.126416546758264
1697045070.6231742,77.25,52.6875,20.0,27.666878210953314,1009.9698424097161,36.126416546758264
1697045070.681869,79.125,52.6875,20.8125,27.666878210953314,1009.9597404706714,36.13083299063146
1697045070.7411745,81.1875,52.625,21.625,28.257664318902208,1010.0608567473345,36.126416546758264
1697045070.8074348,83.3125,52.4375,22.4375,27.413640915743496,1010.0001959168242,36.126416546758264
1697045070.8696218,85.9375,52.25,23.3125,27.32936342123962,1009.9698424097161,36.13083299063146
1697045070.9284832,88.0,52.125,23.9375,26.570088453422475,1009.9900462257261,36.126416546758264
1697045070.9869592,89.5625,51.875,24.3125,27.92012779964227,1009.8889308691304,36.126416546758264
1697045071.04464,91.0625,51.875,24.6875,28.173389682577753,1010.0204005212431,36.135249429848045
1697045071.1018796,92.375,52.0,24.8125,27.835852780706883,1009.8990320404635,36.126416546758264
1697045071.1600354,93.5,51.625,25.0,26.907582281910848,1009.9192343210525,36.13083299063146
1697045071.21821,94.125,51.125,25.0,27.32977831515401,1009.9293866229667,36.126416546758264
1697045071.276989,94.9375,50.375,25.0,27.667305308336363,1010.03050279241,36.126416546758264
1697045071.335349,95.6875,50.125,25.0625,26.992261995055618,1009.9596911954134,36.135249429848045
1697045071.3931417,95.9375,49.5625,25.0,27.835852780706883,1009.8889308691304,36.13083299063146
1697045071.4511175,95.8125,48.8125,24.8125,27.160810997796077,1009.8990320404635,36.135249429848045
1697045071.5129266,95.6875,48.4375,24.6875,27.41405200634387,1009.9799443280685,36.126416546758264
1697045071.5715141,95.5,48.25,24.5625,27.245505479122706,1009.9900462257261,36.135249429848045
1697045071.6301672,95.25,47.875,24.375,27.667305308336363,1010.0001481026889,36.135249429848045
1697045071.6882,94.9375,47.6875,24.25,27.07653606883673,1009.9394881678091,36.122000098228455
1697045071.7458942,94.125,47.8125,24.0625,27.160810997796077,1009.9091331911044,36.144082294311374
1697045071.8030932,92.625,47.8125,23.8125,27.751578616939888,1009.9495896919581,36.135249429848045
1697045071.8608701,90.625,47.5625,23.5625,27.667305308336363,1009.9495896919581,36.135249429848045
1697045071.9187994,89.0625,47.3125,23.5625,27.160810997796077,1009.9495896919581,36.139665864408016
1697045071.9795566,87.0,47.1875,23.8125,27.32977831515401,1009.9495896919581,36.135249429848045
1697045072.0376916,85.75,47.0,24.0625,27.835852780706883,1010.0507072726531,36.135249429848045
1697045072.0958464,84.4375,46.8125,24.5,28.004842975394666,1010.0204005212431,36.135249429848045
1697045072.1536303,83.1875,46.5,24.9375,27.41405200634387,1009.929335430306,36.144082294311374
1697045072.2114174,81.375,45.6875,25.125,28.08911590140693,1009.9495896919581,36.139665864408016
1697045072.2698092,79.375,45.0,25.125,26.907988776442895,1009.929335430306,36.144082294311374
1697045072.3288412,76.6875,44.375,25.0,27.583032854896317,1010.0102499589543,36.144082294311374
1697045072.3872964,73.8125,43.75,24.5625,27.498761256604983,1009.9900462257261,36.135249429848045
1697045072.445296,70.5625,42.5625,23.4375,27.667305308336363,1009.9900462257261,36.144082294311374
1697045072.5028996,67.0625,40.5625,21.75,28.258119628833843,1010.0102499589543,36.144082294311374
1697045072.5645318,63.0625,38.375,19.5,28.173389682577753,1009.9900462257261,36.13083299063146
1697045072.6621943,58.75,35.6875,16.75,27.666878210953314,1010.0102982293802,36.135249429848045
1697045072.759478,54.75,31.8125,13.4375,27.32936342123962,1009.9698424097161,36.126416546758264
1697045072.8566437,51.0,27.3125,9.375,27.245086781923813,1009.9698424097161,36.122000098228455
1697045072.9537597,46.875,22.4375,4.75,27.751155322846255,1009.9698424097161,36.11758364504203
1697045073.0510607,42.8125,17.5625,0.1875,28.004403673746047,1009.9698424097161,36.126416546758264
1697045073.14819,38.3125,11.75,355.125,27.413640915743496,1009.9496385109359,36.126416546758264
1697045073.24564,34.8125,5.625,350.5625,27.666878210953314,1009.90918347121,36.13083299063146
1697045073.3427434,31.875,2.0,346.0625,27.666878210953314,1009.8282734904932,36.126416546758264
1697045073.440694,28.8125,0.0625,339.4375,28.004403673746047,1009.9698424097161,36.126416546758264
1697045073.5394201,26.5,-4.4375,334.5625,28.341939810399975,1009.8687284643962,36.122000098228455
1697045073.6387913,23.625,-7.625,328.9375,27.32936342123962,1009.8889308691304,36.135249429848045
1697045073.7197688,21.3125,-8.75,323.0,28.257664318902208,1009.8889308691304,36.13083299063146
1697045073.8170397,19.125,-10.9375,315.4375,27.666878210953314,1009.8687284643962,36.122000098228455
1697045073.9146411,17.5625,-13.5625,309.3125,27.5826019542386,1009.8889308691304,36.13083299063146
1697045074.0119808,15.75,-16.0625,303.6875,28.510937259091953,1009.808019460191,36.135249429848045
1697045074.1091082,13.9375,-18.3125,298.9375,27.07653606883673,1009.9293866229667,36.11758364504203
1697045074.2067196,11.875,-20.5625,295.4375,27.160810997796077,1009.8889308691304,36.126416546758264
1697045074.3040383,9.6875,-23.125,291.75,27.835852780706883,1009.8889308691304,36.135249429848045
1697045074.4017296,7.8125,-26.4375,286.5,27.92012779964227,1009.8889308691304,36.126416546758264
1697045074.4993625,7.75,-28.875,280.25,28.341939810399975,1009.9900462257261,36.139665864408016
1697045074.591789,8.5625,-30.5625,275.3125,28.42666386051731,1009.9799443280685,36.126416546758264
1697045074.6497817,9.25,-31.75,271.6875,28.173848795710267,1009.8888782153529,36.15291514014825
1697045074.7071934,9.6875,-32.9375,268.3125,28.089578817730484,1009.9798941402347,36.15291514014825
1697045074.7653296,9.375,-34.5,264.9375,28.00530969488958,1009.8686216957153,36.15291514014825
1697045074.823782,9.75,-35.5,261.75,28.089578817730484,1009.8281637995792,36.16174796735868
1697045074.8825297,11.0,-36.5625,256.5625,27.245951592652794,1009.9495375867228,36.16174796735868
1697045074.9412248,12.125,-37.375,251.5625,27.245951592652794,1009.8888222753314,36.15291514014825
1697045074.999467,12.5625,-38.0,247.1875,28.00530969488958,1009.9292809513801,36.16174796735868
1697045075.0572677,12.5,-38.625,243.0625,27.921041427182633,1009.8888222753314,36.16174796735868
1697045075.1151593,12.125,-39.25,239.6875,27.836774014604728,1009.8382637262356,36.16616437397897
1697045075.1732993,11.75,-40.1875,235.1875,27.921041427182633,1010.0101984022202,36.16616437397897
1697045075.231766,10.9375,-41.1875,231.25,27.245951592652794,1009.9393815836378,36.16174796735868
1697045075.290713,9.125,-42.375,228.5625,27.330220625493062,1010.0506571770151,36.16616437397897
1697045075.3492258,6.5625,-43.25,226.625,28.00530969488958,1009.8888222753314,36.16174796735868
1697045075.40703,4.0625,-43.6875,224.375,27.921041427182633,1009.858463517456,36.16616437397897
1697045075.466558,1.6875,-44.1875,221.375,27.921041427182633,1009.8079050219695,36.16616437397897
1697045075.5297933,0.0625,-44.875,217.0625,27.921041427182633,1009.8888222753314,36.16174796735868
1697045075.5890772,357.25,-45.6875,213.5,28.511907316033735,1010.0506571770151,36.16616437397897
1697045075.6476092,353.0625,-46.5,211.375,27.66824175483111,1010.0101435591407,36.16174796735868
1697045075.7058294,349.625,-46.75,97.875,27.499223377449024,1009.9191229895024,36.17058077594265
1697045075.7667782,345.3125,-46.625,207.875,28.342870242357115,1009.9798406660993,36.16616437397897
1697045075.8307335,342.125,-46.125,206.3125,27.077416092393815,1009.8888222753314,36.17058077594265
1697045075.8920646,338.9375,-45.3125,204.8125,27.836774014604728,1009.9697396603423,36.16616437397897
1697045075.950696,336.0625,-44.5625,202.8125,27.330690352566684,1009.8483636321953,36.17058077594265
1697045076.0084264,333.5,-43.875,200.5,27.75250745715586,1009.9595827860436,36.16616437397897
1697045076.0663862,330.8125,-42.8125,199.0,27.583976907625566,1009.9494821951928,36.17058077594265
1697045076.1246421,327.625,-41.3125,197.375,27.66824175483111,1010.0000426155003,36.17499717324972
1697045076.1830745,324.1875,-39.25,196.375,28.005803832540696,1009.8989225340905,36.17058077594265
1697045076.241594,320.9375,-37.0,195.125,27.499712915534303,1009.9696833561886,36.17941356590018
1697045076.300129,317.8125,-34.6875,193.875,27.246425122814152,1009.9595827860436,36.17499717324972
1697045076.3578947,315.25,-32.4375,193.3125,27.330690352566684,1009.9292231861521,36.17941356590018
1697045076.4157267,312.5625,-29.625,193.25,28.005803832540696,1009.88876304903,36.17941356590018
1697045076.4745195,310.25,-26.625,194.25,27.66824175483111,1009.9191229895024,36.17058077594265
1697045076.5386388,308.0,-22.5625,85.6875,27.66824175483111,1009.9292231861521,36.17058077594265
1697045076.5974681,306.625,-19.9375,82.3125,27.583976907625566,1009.9494821951928,36.17499717324972
1697045076.6553411,305.0625,-16.9375,78.0625,27.499712915534303,1009.909022772148,36.17941356590018
1697045076.7128198,303.8125,-13.1875,74.25,27.583976907625566,1010.0000426155003,36.17941356590018
1697045076.77092,303.1875,-8.5625,70.75,26.993149624970183,1009.8989225340905,36.17058077594265
1697045076.8293273,303.1875,-2.9375,67.4375,28.005803832540696,1009.8888222753314,36.18382995389402
1697045076.8882987,303.625,1.9375,64.5625,27.66824175483111,1009.858463517456,36.17499717324972
1697045076.9470203,304.5625,8.1875,61.25,27.499712915534303,1009.8483029448203,36.18382995389402
1697045077.004937,305.75,13.875,57.5,27.75250745715586,1010.030345384295,36.18382995389402
1697045077.0624406,306.5625,17.75,53.0,27.41544977855732,1009.9797839056264,36.17941356590018
1697045077.1203783,307.3125,21.1875,48.4375,28.681505988713084,1010.030345384295,36.18382995389402
1697045077.1788838,308.375,24.375,44.8125,27.41544977855732,1009.939323362096,36.18824633723125
1697045077.2379553,310.375,28.8125,301.375,27.246425122814152,1009.908962633224,36.18824633723125
1697045077.2960682,312.8125,32.875,303.75,27.41544977855732,1010.0202444820732,36.18382995389402
1697045077.3537939,315.3125,36.3125,304.6875,27.41544977855732,1009.9292231861521,36.17941356590018
1697045077.4120443,318.375,39.3125,304.625,27.499712915534303,1009.949423517332,36.18824633723125
1697045077.4703386,322.9375,42.4375,304.375,27.499712915534303,1009.91906239426,36.18824633723125
1697045077.5326,329.4375,45.375,304.0,27.499712915534303,1009.9292231861521,36.18382995389402
1697045077.5915072,336.25,47.3125,302.75,27.837275758337853,1009.9999849423735,36.18382995389402
1697045077.649906,341.375,48.125,300.9375,27.41544977855732,1009.88876304903,36.18382995389402
1697045077.7078094,349.3125,48.5625,299.125,28.006325388662837,1009.91906239426,36.18824633723125
1697045077.765566,358.9375,48.0625,297.4375,27.162160748185745,1009.9898844343551,36.18382995389402
1697045077.8236427,6.875,46.625,295.0,27.6687511045577,1009.908962633224,36.18824633723125
1697045077.8819776,12.0,44.8125,291.75,27.499712915534303,1010.030345384295,36.17941356590018
1697045077.9407465,15.375,43.125,289.0625,27.6687511045577,1010.030345384295,36.18824633723125
1697045077.999195,18.8125,40.8125,285.9375,26.656092306546363,1009.88876304903,36.18824633723125
1697045078.0571134,21.5,38.0,282.75,27.41544977855732,1010.0100854296794,36.18824633723125
1697045078.1146402,23.25,35.0,279.125,27.6687511045577,1009.7774815171052,36.192662715911865
1697045078.172765,24.6875,31.75,275.625,27.6687511045577,1009.8685017820296,36.19707908993587
1697045078.2311583,25.6875,28.8125,272.625,27.41544977855732,1009.9898844343551,36.192662715911865
1697045078.2899466,26.875,25.0,268.9375,28.76576674044196,1009.949423517332,36.18824633723125
1697045078.3486874,28.25,21.0625,265.125,28.174849277368697,1009.908962633224,36.192662715911865
1697045078.4067612,29.625,17.3125,261.1875,27.6687511045577,1009.8685017820296,36.19707908993587
1697045078.4644487,31.0625,13.8125,257.8125,27.246926069931444,1009.9696237656747,36.18824633723125
1697045078.5264149,32.4375,10.3125,255.0,27.3311874966897,1010.0100854296794,36.18824633723125
1697045078.585702,33.6875,7.1875,252.6875,28.006325388662837,1009.9291621345858,36.18824633723125
1697045078.6447287,34.8125,4.125,250.1875,28.174849277368697,1009.9898844343551,36.19707908993587
1697045078.7030983,35.75,1.1875,247.9375,27.58449006032183,1009.8887005364116,36.19707908993587
1697045078.7608874,36.3125,-1.0625,246.125,27.162665498267792,1009.7774815171052,36.18824633723125
1697045078.8184457,36.4375,-3.8125,244.375,26.909372754996042,1009.9291621345858,36.19707908993587
1697045078.8761704,36.5,-5.875,243.1875,27.246926069931444,1009.959523651859,36.19707908993587
1697045078.9347339,36.375,-8.3125,241.875,27.922064726954275,1009.8887005364116,36.18824633723125
1697045078.993818,36.25,-11.0,240.8125,27.50022987118057,1009.8887005364116,36.20591182401404
1697045079.0523753,36.0625,-13.625,240.125,28.006325388662837,1009.8987998825382,36.19707908993587
1697045079.1109731,35.6875,-16.9375,239.375,27.753545968801287,1009.9696237656747,36.19707908993587
1697045079.168333,35.0625,-20.1875,238.6875,28.259650070605993,1009.8887005364116,36.192662715911865
1697045079.2261443,34.1875,-22.9375,238.125,27.246926069931444,1009.9696237656747,36.19707908993587
1697045079.2847176,33.125,-25.625,237.5625,27.162665498267792,1009.9392618542007,36.20149545930326
1697045079.3434157,31.9375,-27.3125,237.25,27.162665498267792,1009.9493615531034,36.20149545930326
1697045079.4020379,29.9375,-28.875,237.0625,27.58449006032183,1009.9696237656747,36.20149545930326
1697045079.4604816,26.8125,-30.0625,237.375,27.837804920335397,1009.9696237656747,36.19707908993587
1697045079.5223827,22.875,-31.0,238.1875,27.837804920335397,1009.9696237656747,36.20149545930326
1697045079.5838747,18.3125,-31.5,238.375,27.6687511045577,1009.9898844343551,36.192662715911865
1697045079.6811826,13.125,-31.0,236.0625,27.66824175483111,1009.9292231861521,36.18382995389402
1697045079.7784958,8.3125,-30.1875,122.375,26.824619255510033,1009.88876304903,36.18382995389402
1697045079.8761525,4.8125,-29.5625,233.25,27.837275758337853,1009.9191229895024,36.18382995389402
1697045079.9734066,0.9375,-29.3125,232.1875,27.499712915534303,1010.0101435591407,36.18382995389402
1697045080.0705001,356.0,-28.5625,232.0,27.837275758337853,1009.8988628514805,36.18382995389402
1697045080.1675882,349.4375,-27.0625,232.0625,26.824619255510033,1009.88876304903,36.18382995389402
1697045080.2658727,343.3125,-25.25,231.875,27.499712915534303,1009.939323362096,36.18824633723125
1697045080.3634503,336.5,-22.5,233.625,27.499712915534303,1009.8483029448203,36.17941356590018
1697045080.4607859,330.1875,-19.5,236.0,28.005803832540696,1009.949423517332,36.17941356590018
1697045080.554757,324.5,-16.5,238.75,27.753013003893095,1009.9292231861521,36.19707908993587
1697045080.6380355,319.6875,-14.375,239.1875,28.090586905466004,1009.949423517332,36.192662715911865
1697045080.7272375,314.375,-11.3125,241.625,27.6687511045577,1009.8483029448203,36.18824633723125
1697045080.8274329,309.3125,-7.125,90.0,27.3311874966897,1009.7976788189408,36.18824633723125
1697045080.8904445,306.5,-4.0625,87.8125,27.50022987118057,1009.9898239311682,36.192662715911865
1697045080.950188,303.8125,-1.5,85.3125,27.837804920335397,1009.9493615531034,36.20149545930326
1697045081.0103335,301.25,0.4375,82.4375,27.331712058176937,1009.8987998825382,36.20591182401404
1697045081.0681477,298.75,3.0,79.5625,27.669287872356865,1009.9493615531034,36.219160890206695
1697045081.1260462,296.875,5.3125,77.125,28.260215056227064,1009.9594612312915,36.20591182401404
1697045081.184355,294.875,8.0,74.0,28.344471532586216,1009.9290977966436,36.20591182401404
1697045081.2430005,292.9375,10.75,70.9375,29.10395447354405,1009.9088992079539,36.20591182401404
1697045081.3016865,290.9375,13.0,67.75,27.669287872356865,1009.9695608887632,36.219160890206695
1697045081.359966,288.8125,14.0625,64.25,28.344471532586216,1009.9290977966436,36.214744539465755
1697045081.417632,287.0,15.375,61.5,27.669287872356865,1009.8380731741278,36.214744539465755
1697045081.475494,284.9375,16.0,58.25,27.24745443429981,1009.8380731741278,36.214744539465755
1697045081.5376408,282.9375,16.125,55.125,27.585030630987372,1009.9189985126563,36.22357723629102
1697045081.5966332,281.875,16.3125,52.1875,28.17595943494284,1009.9897601415552,36.219160890206695
1697045081.6551077,281.375,16.4375,49.625,27.33226403732354,1009.9695608887632,36.22357723629102
1697045081.7130215,281.8125,16.25,47.4375,27.416518713473167,1009.94929630247,36.219160890206695
1697045081.7705166,282.6875,15.5625,45.5625,28.17595943494284,1009.94929630247,36.22357723629102
1697045081.828479,284.25,15.0625,44.4375,27.500774244692806,1009.9290977966436,36.22357723629102
1697045081.887087,287.6875,16.5,43.875,27.163197665507454,1010.0201240240386,36.22357723629102
1697045081.945923,292.25,17.6875,43.8125,27.416518713473167,1009.9695608887632,36.22357723629102
1697045082.0040934,296.6875,17.125,43.6875,27.500774244692806,1010.0100240137995,36.22357723629102
1697045082.0621696,301.6875,16.9375,44.125,28.091704668718787,1010.0100240137995,36.219160890206695
1697045082.120117,307.125,16.75,44.9375,27.500774244692806,1009.8885656520766,36.22357723629102
1697045082.1791208,311.0,15.4375,44.5625,27.500774244692806,1009.868368723046,36.232409914489836
1697045082.2374165,315.5,6.1875,263.25,27.078941751794943,1009.94929630247,36.22357723629102
1697045082.2959816,319.9375,13.1875,257.875,27.33226403732354,1009.94929630247,36.22357723629102
1697045082.3553774,323.875,12.0625,252.4375,28.34506013517454,1009.94929630247,36.22357723629102
1697045082.413464,328.0,11.75,250.0625,28.007450757554906,1009.94929630247,36.219160890206695
1697045082.471232,332.1875,12.0,249.875,28.51356804756689,1010.0099593114645,36.219160890206695
1697045082.533202,335.5625,12.0625,249.5625,27.33226403732354,1009.8481717111474,36.22357723629102
1697045082.5916834,338.6875,12.25,249.9375,27.416518713473167,1009.9593955243049,36.22357723629102
1697045082.6507404,341.875,12.5625,250.25,27.248010216239003,1009.9998597368707,36.232409914489836
1697045082.7094147,344.5,12.8125,250.125,28.091704668718787,1009.9694947254189,36.23682624660432
1697045082.7673035,347.0,12.8125,248.9375,27.33226403732354,1009.9694947254189,36.227993577718735
1697045082.8246386,348.25,12.5625,247.8125,28.176555642973682,1009.8380030840988,36.227993577718735
1697045082.8825676,349.25,12.5,247.6875,28.176555642973682,1009.9290301722903,36.232409914489836
1697045082.940964,350.875,12.4375,247.6875,28.007450757554906,1010.0605238577779,36.232409914489836
1697045082.9997652,351.6875,12.25,247.8125,27.078941751794943,1009.9795939058109,36.232409914489836
1697045083.0581994,351.5,11.8125,246.8125,27.83894550037814,1009.94929630247,36.23682624660432
1697045083.1164813,351.125,11.25,245.625,28.260807461548946,1009.8784671979206,36.232409914489836
1697045083.1741285,350.3125,11.0,245.0625,27.58559861993209,1009.9694947254189,36.232409914489836
1697045083.2321613,349.3125,10.8125,244.0625,27.416518713473167,1009.9694947254189,36.23682624660432
1697045083.2907035,348.1875,10.5625,241.8125,28.514176464949692,1009.8885656520766,36.232409914489836
1697045083.3498404,346.625,10.3125,238.875,28.007450757554906,1009.94929630247,36.227993577718735
1697045083.4084795,344.6875,10.5,239.25,28.766933338342938,1009.8279049827037,36.232409914489836
1697045083.4665596,343.25,11.4375,242.0625,27.669852058528672,1009.9593955243049,36.232409914489836
1697045083.531164,342.4375,12.3125,245.125,28.34506013517454,1009.9897601415552,36.22357723629102
1697045083.589677,341.3125,13.1875,246.0,28.176555642973682,1009.8885656520766,36.232409914489836
1697045083.6482508,339.75,13.6875,245.625,27.163757250214637,1009.9795939058109,36.2412425740622
1697045083.707018,338.0625,13.5,244.5625,27.83894550037814,1009.9694947254189,36.232409914489836
1697045083.7651892,336.5625,13.3125,244.1875,27.923197701441357,1009.8481011647767,36.2412425740622
1697045083.8228385,334.9375,13.5625,244.375,28.85180796709323,1009.8481011647767,36.23682624660432
1697045083.8806343,333.4375,13.6875,244.9375,27.75469415436034,1009.9087624982283,36.232409914489836
1697045083.9387732,331.25,14.1875,246.375,26.48861170821187,1010.0200588653348,36.232409914489836
1697045083.9974973,328.4375,15.375,249.75,27.163757250214637,1009.9795939058109,36.2412425740622
1697045084.0559037,325.6875,17.25,255.1875,27.75469415436034,1009.8986640855131,36.24565889686346
1697045084.1140952,323.4375,20.5,264.5,26.48861170821187,1009.989693065479,36.232409914489836
1697045084.1720035,321.75,23.5,273.1875,27.163757250214637,1009.8885656520766,36.2412425740622
1697045084.229425,318.5625,25.375,279.5625,27.83894550037814,1009.9694947254189,36.2412425740622
1697045084.2873156,314.6875,25.0625,281.125,27.75469415436034,1010.0402579108992,36.23682624660432
1697045084.3455744,310.1875,22.4375,277.5625,27.83894550037814,1009.989693065479,36.2412425740622
1697045084.404212,305.875,19.0,31.0625,26.826179141082388,1009.8986640855131,36.24565889686346
1697045084.466583,301.9375,16.375,30.625,28.260807461548946,1009.989693065479,36.232409914489836
1697045084.5282032,297.9375,15.1875,30.8125,26.826179141082388,1010.0200588653348,36.2412425740622
1697045084.5866501,294.0,15.5,31.375,27.50134603638584,1009.9694947254189,36.2412425740622
1697045084.6453524,290.0,17.25,31.875,27.83894550037814,1009.8986640855131,36.23682624660432
1697045084.7044137,285.8125,18.1875,31.875,28.176555642973682,1010.0200588653348,36.2412425740622
1697045084.764174,281.375,16.75,31.3125,27.417094307894843,1009.8986640855131,36.23682624660432
1697045084.8225093,277.625,13.4375,30.5625,28.008054570939724,1010.0098913226376,36.2412425740622
1697045084.880043,273.25,9.0625,29.875,27.079505139250443,1009.989693065479,36.2412425740622
1697045084.9382362,269.4375,6.25,29.375,28.514176464949692,1009.8581992247362,36.24565889686346
1697045084.9970343,266.375,7.9375,29.25,26.99525388333658,1009.9795939058109,36.2412425740622
1697045085.056435,263.5625,12.5625,29.0625,26.99525388333658,1009.8379297076791,36.2412425740622
1697045085.1147323,261.0,15.5,28.625,28.092304679438914,1009.9694252756042,36.232409914489836
1697045085.1729631,257.5625,16.25,27.8125,26.657675009267777,1009.989693065479,36.2412425740622
1697045085.2309587,6.0,17.5,26.5625,26.99525388333658,1009.989693065479,36.2412425740622
1697045085.2892344,250.25,20.5,24.8125,27.586194027465897,1010.0301583984802,36.24565889686346
1697045085.3477788,246.5625,22.375,22.9375,27.332843434454176,1009.9289592614881,36.24565889686346
1697045085.4069295,242.875,22.5625,20.8125,28.008054570939724,1009.8682972639756,36.2412425740622
1697045085.4652765,239.9375,22.125,19.0,27.67044366339287,1009.989693065479,36.24565889686346
1697045085.5295825,236.0,22.6875,16.125,28.176555642973682,1009.8783952824931,36.24565889686346
1697045085.587615,232.8125,23.4375,13.4375,27.92380531747611,1010.0098913226376,36.25007521500811
1697045085.646231,229.8125,23.5625,122.625,28.092304679438914,1009.8986640855131,36.25007521500811
1697045085.7049663,227.4375,23.125,124.125,28.008054570939724,1009.9087624982283,36.25007521500811
1697045085.764006,224.5625,22.125,126.75,27.67044366339287,1009.989693065479,36.2412425740622
1697045085.8338861,220.6875,20.75,129.6875,27.83894550037814,1010.0504239304286,36.2412425740622
1697045085.9267962,216.5,20.125,129.5625,27.163757250214637,1009.9694947254189,36.2412425740622
1697045085.9854019,214.3125,19.5625,129.875,27.67044366339287,1009.8885656520766,36.25007521500811
1697045086.043594,212.1875,18.3125,132.1875,26.91100348247797,1009.9087624982283,36.25007521500811
1697045086.1019695,210.0,17.4375,133.3125,27.67044366339287,1009.9188608902206,36.2412425740622
1697045086.1610174,208.0625,16.375,134.375,26.99525388333658,1009.8783952824931,36.24565889686346
1697045086.2189784,206.5,15.5,135.375,27.67044366339287,1010.0098913226376,36.25007521500811
1697045086.2766683,205.375,15.0625,135.375,28.008054570939724,1009.9087624982283,36.254491528496146
1697045086.3344142,204.125,14.625,134.9375,28.008054570939724,1010.0908235154624,36.24565889686346
1697045086.3927426,202.875,13.8125,135.75,27.417697320703915,1009.9289592614881,36.2412425740622
1697045086.450943,201.4375,12.9375,136.5,28.177179270916863,1009.8379297076791,36.254491528496146
1697045086.5096774,200.1875,12.3125,136.6875,27.67044366339287,1010.0908235154624,36.254491528496146
1697045086.5717669,199.3125,12.0,136.25,28.177179270916863,1009.8985912573568,36.24565889686346
1697045086.6295373,198.75,11.5,136.6875,28.345676157871964,1009.8884932802873,36.25890783732757
1697045086.687365,198.25,11.1875,136.75,27.92380531747611,1010.0098913226376,36.25890783732757
1697045086.7459369,197.75,3.1875,135.75,28.261427286881545,1009.9289592614881,36.25007521500811
1697045086.8044195,197.25,11.25,134.875,28.261427286881545,1009.8581249355982,36.25007521500811
1697045086.863328,196.625,11.4375,133.5625,28.68330842497665,1009.8884932802873,36.25007521500811
1697045086.9216857,196.125,11.6875,132.0,28.345676157871964,1009.9289592614881,36.254491528496146
1697045086.9797354,195.75,12.4375,129.25,28.177179270916863,1009.9491559418432,36.25007521500811
1697045087.037259,196.0,13.3125,126.6875,27.92380531747611,1009.8985912573568,36.25007521500811
1697045087.0955095,196.875,14.6875,123.1875,28.514812302958106,1009.8985912573568,36.254491528496146
1697045087.1538162,198.3125,16.0,120.5,27.839556919048068,1009.9390576120294,36.25890783732757
1697045087.212208,200.375,17.625,117.6875,27.92380531747611,1009.9289592614881,36.254491528496146
1697045087.2703805,202.4375,19.625,114.5,28.68330842497665,1009.8985912573568,36.25890783732757
1697045087.3285127,203.8125,21.1875,112.8125,27.92380531747611,1009.8581249355982,36.25007521500811
1697045087.3870232,204.6875,23.0,111.625,28.430565524467763,1009.9390576120294,36.25890783732757
1697045087.4452486,204.4375,24.25,112.0,28.346319600998235,1009.8581249355982,36.25890783732757
1697045087.5044477,203.0625,24.375,114.8125,28.177179270916863,1009.8884932802873,36.25890783732757
1697045087.566795,201.125,23.5,118.9375,28.514812302958106,1009.9390576120294,36.254491528496146
1697045087.6248996,199.25,21.4375,123.9375,28.852456015949024,1009.8682225184705,36.254491528496146
1697045087.6824589,198.125,18.5625,128.6875,27.755309375640845,1009.8277558561548,36.25890783732757
1697045087.7405066,198.625,16.0,132.3125,28.768209619926957,1009.8581249355982,36.25890783732757
1697045087.7990477,200.9375,14.3125,133.25,28.09293210996808,1009.8682225184705,36.25890783732757
1697045087.8576174,204.625,14.625,130.3125,28.514812302958106,1009.7872892267508,36.25890783732757
1697045087.915983,320.25,16.875,123.875,27.839556919048068,1009.8985912573568,36.25890783732757
1697045087.974067,210.5,20.0,117.5,28.008685804040116,1009.8682225184705,36.25890783732757
1697045088.031934,211.375,23.625,112.25,27.501945246569576,1009.8682225184705,36.25890783732757
1697045088.0896525,211.0,26.9375,108.0,28.008685804040116,1009.8480273320005,36.25890783732757
1697045088.1477525,208.1875,29.8125,104.6875,27.67106268725936,1009.9086892136994,36.26332414150238
1697045088.2066169,204.3125,28.6875,108.3125,28.430565524467763,1009.8176586467525,36.26774044102058
1697045088.2654026,201.25,24.1875,116.0625,28.177179270916863,1010.0300894968819,36.25890783732757
1697045088.3234937,200.375,18.3125,124.25,28.09293210996808,1009.9086892136994,36.25890783732757
1697045088.381606,201.4375,14.5625,127.875,28.430565524467763,1009.9491559418432,36.25890783732757
1697045088.4395378,205.125,12.6875,128.625,28.008685804040116,1009.8682225184705,36.26332414150238
1697045088.4977026,211.125,14.125,124.625,27.67106268725936,1009.8277558561548,36.26332414150238
1697045088.560396,216.75,18.6875,114.875,27.755309375640845,1009.8682225184705,36.26332414150238
1697045088.6188514,219.875,24.5,103.625,27.586816853893776,1009.9592542509283,36.25890783732757
1697045088.6768978,219.875,30.25,94.25,27.67106268725936,1009.9086892136994,36.25890783732757
1697045088.7344306,216.125,31.8125,95.3125,27.67106268725936,1009.8783200806165,36.26774044102058
1697045088.792409,212.0,29.25,102.75,27.924440353123128,1009.9491559418432,36.25890783732757
1697045088.850595,208.25,23.0625,114.8125,28.177179270916863,1009.9086892136994,36.25890783732757
1697045088.909298,207.3125,16.625,124.875,28.008685804040116,1009.8783200806165,36.26332414150238
1697045088.9683776,210.125,12.125,131.4375,28.68396407891095,1009.8682225184705,36.26774044102058
1697045089.0267205,216.0625,11.6875,130.8125,27.33345024986891,1009.8783200806165,36.26774044102058
1697045089.0844297,223.75,15.9375,119.625,28.430565524467763,1009.9693525392825,36.26774044102058
1697045089.1428123,228.8125,22.5625,101.8125,28.09293210996808,1009.8682225184705,36.25890783732757
1697045089.2009435,232.4375,28.8125,87.6875,28.346319600998235,1009.8682225184705,36.26774044102058
1697045089.2595701,230.3125,31.8125,86.4375,28.346319600998235,1009.8783200806165,36.25890783732757
1697045089.3181179,222.8125,30.875,95.0625,28.599719392901005,1009.9288850642002,36.26332414150238
1697045089.3761885,215.5,25.4375,107.9375,28.008685804040116,1009.8074828364427,36.26774044102058
1697045089.433904,212.375,19.1875,118.875,28.346319600998235,1009.888417622034,36.27215673588216
1697045089.4917936,213.125,13.1875,127.5625,27.33345024986891,1009.9592542509283,36.26774044102058
1697045089.5537853,217.625,11.25,129.75,28.68396407891095,1009.9794508069042,36.26774044102058
1697045089.612846,224.625,11.8125,128.8125,27.67106268725936,1009.8074828364427,36.26774044102058
1697045089.6712823,230.6875,14.75,347.75,28.008685804040116,1009.9693525392825,36.26332414150238
1697045089.729505,234.125,19.0,354.0625,28.346319600998235,1009.9187871493148,36.26774044102058
1697045089.787061,233.25,22.8125,357.9375,26.574010429468153,1009.9288850642002,36.26774044102058
1697045089.8449202,229.0,23.75,110.125,28.85313148644869,1009.8783200806165,36.27215673588216
1697045089.9034033,221.375,21.6875,117.8125,28.346319600998235,1009.9187871493148,36.26774044102058
1697045089.9628394,214.9375,16.75,125.9375,28.26207453253477,1009.8783200806165,36.26774044102058
1697045090.021283,213.375,12.4375,128.5625,27.33345024986891,1009.8682225184705,36.25890783732757
1697045090.0791936,216.5,12.375,123.625,28.26207453253477,1009.8985151427217,36.276573026087135
1697045090.1373425,224.125,15.75,113.9375,28.26207453253477,1009.8074828364427,36.276573026087135
1697045090.195348,230.6875,19.5625,342.6875,27.840195757217124,1009.9592542509283,36.26774044102058
1697045090.253931,235.375,21.875,351.4375,28.346319600998235,1009.9693525392825,36.25890783732757
1697045090.3124342,234.25,25.6875,356.9375,27.33345024986891,1009.9491559418432,36.26774044102058
1697045090.3710477,228.0625,26.3125,104.5,27.924440353123128,1009.9086126426782,36.26774044102058
1697045090.4292085,219.5625,22.9375,115.25,27.840195757217124,1009.9288850642002,36.276573026087135
1697045090.4871724,214.375,17.0,124.8125,28.68396407891095,1009.8783200806165,36.26774044102058
1697045090.5488544,215.25,11.75,129.9375,28.514812302958106,1009.8074828364427,36.26332414150238
1697045090.6073573,221.125,11.9375,124.3125,28.008685804040116,1009.8783200806165,36.26774044102058
1697045090.6661355,228.4375,16.0625,337.6875,28.26207453253477,1009.888417622034,36.26332414150238
1697045090.7246606,236.0625,22.625,344.6875,28.51547556188728,1009.8985151427217,36.26774044102058
1697045090.7854474,239.9375,25.6875,353.4375,27.840195757217124,1009.888417622034,36.27215673588216
1697045090.8484085,234.0625,29.0,357.125,28.008685804040116,1009.9693525392825,36.26332414150238
1697045090.9088151,223.0625,23.3125,110.0,27.417697320703915,1009.8682225184705,36.25890783732757
1697045091.0066571,218.8125,12.4375,127.3125,27.92380531747611,1009.8480273320005,36.25007521500811
1697045091.1033685,230.75,13.0625,342.375,27.67044366339287,1009.9289592614881,36.25007521500811
1697045091.2007422,243.4375,22.0625,356.6875,27.67044366339287,1009.9997922044219,36.24565889686346
1697045091.2983239,241.875,23.9375,4.1875,28.42992588389796,1009.8177343968716,36.2412425740622
1697045091.3958032,228.6875,17.875,355.8125,27.67044366339287,1009.8783952824931,36.24565889686346
1697045091.4935114,228.0625,11.3125,342.875,26.99525388333658,1009.8278320626357,36.2412425740622
1697045091.589504,238.75,15.375,346.3125,28.514812302958106,1009.8986640855131,36.254491528496146
1697045091.6714158,249.8125,21.9375,0.0625,28.345676157871964,1009.9087624982283,36.24565889686346
1697045091.7688036,247.125,26.5,6.6875,27.67044366339287,1009.9188608902206,36.24565889686346
1697045091.8658266,231.375,21.25,354.875,28.261427286881545,1009.8278320626357,36.25007521500811
1697045091.9631917,228.25,14.875,343.0625,28.42992588389796,1009.9087624982283,36.2412425740622
1697045092.0606694,241.1875,21.0625,349.9375,28.176555642973682,1009.9087624982283,36.25007521500811
1697045092.1578574,255.6875,24.6875,5.875,27.332843434454176,1009.8379297076791,36.2412425740622
1697045092.2562888,249.9375,27.4375,8.5,26.91100348247797,1009.9289592614881,36.2412425740622
1697045092.3538358,232.0,18.25,354.25,26.99525388333658,1009.9289592614881,36.25007521500811
1697045092.4512742,226.75,8.875,342.0,27.586194027465897,1009.9289592614881,36.25007521500811
1697045092.5489078,236.8125,11.1875,348.75,26.91100348247797,1009.8783952824931,36.25007521500811
1697045092.6447256,244.8125,17.5625,4.6875,27.92380531747611,1009.9492277653954,36.254491528496146
1697045092.7326367,238.9375,23.6875,8.1875,27.501945246569576,1009.9390576120294,36.24565889686346
1697045092.8218849,223.1875,19.25,128.375,27.92380531747611,1009.9289592614881,36.25007521500811
1697045092.9192505,216.1875,7.4375,147.375,26.91100348247797,1009.9289592614881,36.25007521500811
1697045093.0165925,224.5625,5.3125,148.8125,28.42992588389796,1009.9289592614881,36.24565889686346
1697045093.1138604,236.3125,12.75,354.4375,27.501945246569576,1009.9188608902206,36.24565889686346
1697045093.211046,239.0,21.75,4.75,26.99525388333658,1009.9289592614881,36.25007521500811
1697045093.308197,227.5,27.375,112.4375,26.91100348247797,1009.9188608902206,36.25007521500811
1697045093.4068844,211.4375,20.9375,130.3125,28.09293210996808,1009.8884932802873,36.25007521500811
1697045093.5050476,207.75,7.8125,149.4375,27.586194027465897,1010.0098913226376,36.254491528496146
1697045093.6054354,212.875,1.75,157.1875,27.839556919048068,1009.8682225184705,36.25007521500811
1697045093.6806436,222.4375,1.375,155.9375,27.417697320703915,1010.0300894968819,36.254491528496146
1697045093.768263,238.125,3.5,339.5625,28.177179270916863,1009.9289592614881,36.254491528496146
1697045093.8659294,259.5625,6.0,341.3125,26.91100348247797,1009.9086892136994,36.25890783732757
1697045093.963396,280.125,6.0,344.75,28.345676157871964,1010.0098913226376,36.25007521500811
1697045094.0606582,301.5,8.3125,352.5,27.586194027465897,1010.0098913226376,36.24565889686346
1697045094.1577365,315.375,10.0625,214.875,26.657675009267777,1009.9289592614881,36.24565889686346
1697045094.2552712,318.125,6.5625,216.9375,27.501945246569576,1009.9289592614881,36.25890783732757
1697045094.3523853,311.3125,3.0,30.6875,28.177179270916863,1010.1009233598976,36.25007521500811
1697045094.4500704,296.875,3.375,38.4375,27.839556919048068,1009.9289592614881,36.25007521500811
1697045094.5475478,278.6875,8.5625,42.3125,27.501945246569576,1010.1110231836001,36.25890783732757
1697045094.6475682,261.5,4.625,41.75,28.008685804040116,1010.0199904201249,36.25890783732757
1697045094.7225864,248.25,11.5625,39.5,26.658257410164786,1009.9491559418432,36.25890783732757
1697045094.816452,239.4375,9.625,35.875,27.417697320703915,1010.0199904201249,36.25890783732757
1697045094.9136417,237.5625,7.875,32.5625,27.417697320703915,1009.9086892136994,36.26332414150238
1697045095.0114305,238.4375,14.0,27.25,27.501945246569576,1009.8783952824931,36.25890783732757
1697045095.1086657,235.375,8.6875,26.0625,27.501945246569576,1009.9289592614881,36.25890783732757
1697045095.2061384,230.9375,7.3125,26.0,27.501945246569576,1009.9795239996184,36.25890783732757
1697045095.3031754,227.4375,5.4375,27.5625,27.839556919048068,1009.8581249355982,36.25007521500811
1697045095.4005249,223.875,-1.75,216.875,26.91100348247797,1009.9491559418432,36.254491528496146
1697045095.4982264,220.75,-5.5625,229.5625,28.09293210996808,1009.8682225184705,36.254491528496146
1697045095.5957568,219.25,-4.0,225.4375,27.33345024986891,1009.8682225184705,36.26774044102058
1697045095.6766598,218.3125,-1.0,217.1875,28.008685804040116,1009.8783200806165,36.26332414150238
1697045095.7753203,216.6875,0.375,212.4375,28.177179270916863,1010.0300894968819,36.25890783732757
1697045095.874713,215.625,-1.5,216.5625,27.586816853893776,1009.9592542509283,36.276573026087135
1697045095.9398737,215.0625,-6.5,232.1875,27.840195757217124,1009.8985151427217,36.27215673588216
1697045095.9979594,214.25,-6.625,231.8125,27.840195757217124,1009.9086126426782,36.276573026087135
1697045096.0555246,213.875,-8.5625,236.875,27.755952016322098,1009.9086126426782,36.276573026087135
