Time (s),Roll (deg.),Pitch (deg.),Yaw (deg.),Altitude (m),Pressure (Pa),Temeprature (C)
1697042340.7324727,357.9375,-0.6875,0.0,32.34097411394466,1009.480890936121,37.415820316877216
1697042371.3553112,358.0,-8.875,235.625,32.59295474313473,1009.4711307951511,37.411405228078365
1697042371.4344609,358.0,-0.875,355.625,31.579875092936557,1009.430264846325,37.42465048050508
1697042371.4975934,358.0,-0.875,355.625,31.243913236752608,1009.5617109943759,37.43789569102228
1697042371.5574133,358.0,-0.875,355.625,32.59817667382959,1009.490646852803,37.44672580808401
1697042371.6160157,358.0,-0.875,355.625,31.414487939585623,1009.3079496076377,37.459970948752016
1697042371.6744375,358.0,-0.875,355.625,32.007635702791596,1009.520837571905,37.45114085962996
1697042371.7332578,358.0,-0.875,243.625,32.007635702791596,1009.3890792737984,37.459970948752016
1697042371.7919872,358.0,-0.875,355.625,31.669063329458087,1009.4903354083301,37.459970948752016
1697042371.8507721,358.0,-0.875,355.625,31.669063329458087,1009.4092041180851,37.459970948752016
1697042371.9096847,358.0,-0.875,355.625,31.24651631014696,1009.3991417064667,37.464385986328125
1697042371.9684167,358.0,-0.875,355.625,31.417110870005295,1009.4698952530308,37.464385986328125
1697042372.0269747,358.0,-0.875,355.625,31.24651631014696,1009.3887625362192,37.459970948752016
1697042372.0857863,358.0,-0.875,355.625,30.656012853259885,1009.4092041180851,37.459970948752016
1697042372.1447291,358.0,-0.875,355.625,31.755684386788648,1009.500398545101,37.459970948752016
1697042372.203727,358.0,-0.875,355.625,32.17825118355304,1009.4598325104162,37.464385986328125
1697042372.2624204,358.0,-0.875,355.625,32.09426864630119,1009.4903354083301,37.473216047510505
1697042372.3213077,358.0,-0.875,355.625,31.755684386788648,1009.4698952530308,37.46880101924762
1697042372.3799567,358.0,-0.875,355.625,32.262234574404076,1009.4799579745901,37.46880101924762
1697042372.443017,358.0,-0.875,355.625,31.755684386788648,1009.4293288781654,37.46880101924762
1697042372.501675,358.0,-0.875,355.625,32.007635702791596,1009.3887625362192,37.46880101924762
1697042372.5603049,358.0,-0.875,355.625,31.333128424067496,1009.4698952530308,37.473216047510505
1697042372.618916,358.0,-0.875,355.625,30.656012853259885,1009.3887625362192,37.46880101924762
1697042372.6773272,358.0,-0.875,355.625,31.333128424067496,1009.4698952530308,37.473216047510505
1697042372.7361479,358.0,-0.875,355.625,32.01028696263869,1009.4698952530308,37.473216047510505
1697042372.7950463,358.0,-0.875,355.625,32.01028696263869,1009.4799579745901,37.46880101924762
1697042372.853916,358.0,-0.875,355.625,30.99456526808616,1009.4698952530308,37.473216047510505
1697042372.9121122,358.0,-0.875,355.625,31.333128424067496,1009.4598325104162,37.477631071116775
1697042372.970939,358.0,-0.875,355.625,31.333128424067496,1009.4293288781654,37.477631071116775
1697042373.0295918,358.0,-0.875,355.625,31.16516609298453,1009.4393912266253,37.477631071116775
1697042373.0883327,358.0,-0.875,355.625,31.333128424067496,1009.4393912266253,37.473216047510505
1697042373.1473377,358.0,-0.875,355.625,31.333128424067496,1009.4900206750921,37.48204609006643
1697042373.20649,358.0,-0.875,355.625,31.333128424067496,1009.4088864658859,37.48646110435948
1697042373.2648656,358.0,-0.875,355.625,32.01028696263869,1009.4695781456619,37.477631071116775
1697042373.323652,358.0,-0.875,355.625,31.926306132565532,1009.4088864658859,37.477631071116775
1697042373.382515,358.0,-0.875,355.625,32.01028696263869,1009.4799579745901,37.477631071116775
1697042373.4447553,358.0,-0.875,355.625,31.16516609298453,1009.4900206750921,37.48646110435948
1697042373.5033953,358.0,-0.875,355.625,31.842326156081725,1009.3582578294528,37.477631071116775
1697042373.5619564,358.0,-0.875,355.625,31.926306132565532,1009.4695781456619,37.48646110435948
1697042373.620713,358.0,-0.875,355.625,32.348882346807585,1009.4695781456619,37.48646110435948
1697042373.6790242,358.0,-0.875,355.625,31.503740753168533,1009.3683194106615,37.48646110435948
1697042373.7382624,358.0,-0.875,355.625,31.419761249138883,1009.4290103113268,37.48646110435948
1697042373.7970514,358.0,-0.875,355.625,31.503740753168533,1009.4189483991355,37.477631071116775
1697042373.855799,358.0,-0.875,355.625,31.674368763847717,1009.4088864658859,37.477631071116775
1697042373.914499,358.0,-0.875,355.625,31.503740753168533,1009.4595158603751,37.48646110435948
1697042373.9729068,358.0,-0.875,355.625,31.842326156081725,1009.4900206750921,37.477631071116775
1697042374.0315242,358.0,-0.875,355.625,31.842326156081725,1009.4695781456619,37.49087611399591
1697042374.09016,358.0,-0.875,355.625,31.674368763847717,1009.5507139130967,37.48646110435948
1697042374.14902,358.0,-0.875,355.625,31.842326156081725,1009.4290103113268,37.477631071116775
1697042374.207776,358.0,-0.875,355.625,31.758347033177426,1009.4695781456619,37.48204609006643
1697042374.2665384,358.0,-0.875,355.625,31.842326156081725,1009.4290103113268,37.477631071116775
1697042374.3249516,358.0,-0.875,355.625,31.503740753168533,1009.4290103113268,37.49529111897573
1697042374.3834233,358.0,-0.875,355.625,31.758347033177426,1009.4189483991355,37.477631071116775
1697042374.4456313,358.0,-0.875,355.625,31.842326156081725,1009.3884425099114,37.48204609006643
1697042374.5044909,358.0,-0.875,355.625,32.43555083261984,1009.5101460129179,37.49529111897573
1697042374.5634897,358.0,-0.875,355.625,31.842326156081725,1009.4189483991355,37.49529111897573
1697042374.6221888,358.0,-0.875,355.625,32.51952919326852,1009.4491340725309,37.48646110435948
1697042374.6805916,358.0,-0.875,355.625,31.674368763847717,1009.5302712664972,37.49087611399591
1697042374.7394133,358.0,-0.875,355.625,31.16516609298453,1009.5101460129179,37.49087611399591
1697042374.7984889,358.0,-0.875,355.625,31.59039134809752,1009.5302712664972,37.49529111897573
1697042374.8572214,358.0,-0.875,355.625,32.012965672537696,1009.4491340725309,37.49087611399591
1697042374.915508,358.0,-0.875,355.625,31.59039134809752,1009.5302712664972,37.49529111897573
1697042374.9742482,358.0,-0.875,355.625,31.16782785853683,1009.4290103113268,37.49087611399591
1697042375.0326948,358.0,-0.875,355.625,31.50641478591699,1009.4491340725309,37.48646110435948
1697042375.0911732,358.0,-0.875,355.625,32.267596672016744,1009.4591959215398,37.50412111496553
1697042375.1501422,358.0,-0.875,355.625,31.928988637903014,1009.4491340725309,37.49529111897573
1697042375.2088714,358.0,-0.875,355.625,31.674368763847717,1009.4997648751538,37.499706119298935
1697042375.267174,358.0,-0.875,355.625,30.829251673895694,1009.4085655249291,37.49529111897573
1697042375.326138,358.0,-0.875,355.625,32.522240032396695,1009.4085655249291,37.50412111496553
1697042375.3844478,358.0,-0.875,355.625,31.50641478591699,1009.4290103113268,37.49529111897573
1697042375.4467788,358.0,-0.875,355.625,31.84501245682816,1009.4290103113268,37.499706119298935
1697042375.5058007,358.0,-0.875,355.625,31.16782785853683,1009.4286884557018,37.499706119298935
1697042375.5648649,358.0,-0.875,355.625,31.59039134809752,1009.5503964358168,37.499706119298935
1697042375.6234014,358.0,-0.875,355.625,30.745275203078407,1009.4085655249291,37.50412111496553
1697042375.6817696,358.0,-0.875,355.625,31.84501245682816,1009.5098270761893,37.50412111496553
1697042375.7404299,358.0,-0.875,355.625,31.76103712932298,1009.5098270761893,37.499706119298935
1697042375.7994597,358.0,-0.875,355.625,31.422439077301213,1009.4692577494848,37.50412111496553
1697042375.8580937,6.0,-0.875,355.625,31.50641478591699,1009.4491340725309,37.50853610597551
1697042375.9173522,358.0,-0.875,355.625,31.59039134809752,1009.4286884557018,37.50853610597551
1697042375.9758127,358.0,-0.875,355.625,32.522240032396695,1009.4286884557018,37.50412111496553
1697042376.0343742,358.0,-0.875,355.625,32.43826546710778,1009.306980771865,37.50412111496553
1697042376.0931568,358.0,-0.875,355.625,32.015671832813304,1009.4692577494848,37.499706119298935
1697042376.1528997,358.0,-0.875,355.625,31.50641478591699,1009.4692577494848,37.50412111496553
1697042376.2116685,358.0,-0.875,355.625,31.84501245682816,1009.3374892582174,37.50853610597551
1697042376.269945,358.0,-0.875,355.625,31.33846422225511,1009.4893813421763,37.50412111496553
1697042376.3284025,358.0,-0.875,355.625,31.422439077301213,1009.3780581130734,37.50853610597551
1697042376.3870084,358.0,-0.875,355.625,31.84501245682816,1009.4591959215398,37.49087611399591
1697042376.4862661,358.0,-0.875,355.625,32.012965672537696,1009.5202086502392,37.49529111897573
1697042376.5679255,358.0,-0.875,355.625,31.335782598688745,1009.5101460129179,37.48646110435948
1697042376.658804,358.0,-0.875,355.625,31.842326156081725,1009.4189483991355,37.48646110435948
1697042376.7562256,358.0,-0.875,355.625,31.674368763847717,1009.4088864658859,37.477631071116775
1697042376.8533516,358.0,-0.875,355.625,31.842326156081725,1009.5101460129179,37.48204609006643
1697042376.950957,358.0,-0.875,355.625,31.16516609298453,1009.5000833545351,37.49087611399591
1697042377.0482953,358.0,-0.875,355.625,31.335782598688745,1009.3683194106615,37.48646110435948
1697042377.1457999,358.0,-0.875,355.625,32.012965672537696,1009.4290103113268,37.48646110435948
1697042377.2437496,358.0,-0.875,355.625,31.842326156081725,1009.4595158603751,37.477631071116775
1697042377.341024,358.0,-0.875,355.625,32.180922302521004,1009.4494535540289,37.49087611399591
1697042377.43859,358.0,-0.875,355.625,31.842326156081725,1009.4695781456619,37.49529111897573
1697042377.537923,358.0,-8.875,235.625,31.674368763847717,1009.4290103113268,37.49529111897573
1697042377.6133714,358.0,-0.875,355.625,33.02882086763481,1009.4186270008469,37.49529111897573
1697042377.7072577,358.0,-0.875,347.625,31.59039134809752,1009.4796404098884,37.49087611399591
1697042377.804245,358.0,-0.875,355.625,31.674368763847717,1009.4695781456619,37.49529111897573
1697042377.9078553,358.0,-0.875,355.625,31.59039134809752,1009.489702653053,37.49529111897573
1697042377.993027,358.0,-0.875,355.625,31.25180480182303,1009.4186270008469,37.50853610597551
1697042378.0556989,358.0,-0.875,355.625,32.18634689250658,1009.4793195563642,37.512951092328876
1697042378.1149323,358.0,-0.875,355.625,31.67706265537271,1009.458872693874,37.51736607402563
1697042378.173843,358.0,-0.875,355.625,32.102375741383206,1009.3271013798565,37.52178105106577
1697042378.2320795,358.0,-0.875,355.625,31.847726207764257,1009.4994431069198,37.512951092328876
1697042378.2904882,358.0,-0.875,355.625,31.679783996880758,1009.3676713210585,37.52178105106577
1697042378.3492985,358.0,-0.875,355.625,31.847726207764257,1009.4994431069198,37.51736607402563
1697042378.4081867,358.0,-0.875,355.625,31.002573337619825,1009.4283633112527,37.52178105106577
1697042378.470297,358.0,-0.875,355.625,31.509116268131994,1009.3877925909635,37.52178105106577
1697042378.528785,358.0,-0.875,355.625,31.17051707283256,1009.4283633112527,37.52178105106577
1697042378.587264,358.0,-0.875,355.625,32.18634689250658,1009.5095048505935,37.52178105106577
1697042378.6459017,358.0,-0.875,355.625,32.18634689250658,1009.3777319665443,37.52178105106577
1697042378.7048645,358.0,-0.875,355.625,32.102375741383206,1009.47899541398,37.53061099117622
1697042378.7632446,358.0,-0.875,355.625,33.03433426313783,1009.3877925909635,37.5261960234493
1697042378.821813,358.0,-0.875,355.625,31.002573337619825,1009.458872693874,37.53061099117622
1697042378.8802342,358.0,-0.875,355.625,32.35703763661634,1009.4079137765962,37.53061099117622
1697042378.9388585,358.0,-0.875,355.625,32.018405443795075,1009.3978531943148,37.52178105106577
1697042378.9975338,358.0,-0.875,355.625,31.85046740920484,1009.3572821338614,37.5261960234493
1697042379.0564523,358.0,-0.875,355.625,32.35703763661634,1009.4079137765962,37.5261960234493
1697042379.1160374,358.0,-0.875,355.625,32.35703763661634,1009.4689340644622,37.5261960234493
1697042379.1745348,6.0,-0.875,355.625,32.61171189423597,1009.3978531943148,37.53061099117622
1697042379.2328627,358.0,-0.875,355.625,32.018405443795075,1009.3673423430613,37.53061099117622
1697042379.2912912,358.0,-0.875,355.625,31.341173295086335,1009.4890567424256,37.53061099117622
1697042379.3501093,358.0,-0.875,355.625,31.511845200138207,1009.5396899551774,37.53502595424652
1697042379.4090984,358.0,-0.875,355.625,31.595814171741864,1009.4890567424256,37.53061099117622
1697042379.4714437,358.0,-0.875,355.625,32.18910036417843,1009.3874626982501,37.5261960234493
1697042379.5301535,358.0,-0.875,355.625,32.18910036417843,1009.4079137765962,37.53944091266021
1697042379.5887716,358.0,-0.875,355.625,32.44100755312339,1009.4890567424256,37.53061099117622
1697042379.6479297,358.0,-0.875,355.625,31.679783996880758,1009.5497516145546,37.53061099117622
1697042379.7068846,358.0,-0.875,355.625,32.18910036417843,1009.4179743378066,37.53061099117622
1697042379.76546,6.0,-0.875,355.625,32.10513300823773,1009.4484852430502,37.53502595424652
1697042379.8239808,358.0,-0.875,355.625,32.18910036417843,1009.4991180497979,37.53944091266021
1697042379.8821383,358.0,-0.875,355.625,31.85046740920484,1009.4890567424256,37.53502595424652
1697042379.9407535,358.0,-0.875,355.625,31.766499672187983,1009.4179743378066,37.53502595424652
1697042379.999451,358.0,-0.875,355.625,32.86639851501931,1009.3774025311918,37.53061099117622
1697042380.0583706,358.0,-0.875,355.625,31.511845200138207,1009.428034877944,37.53502595424652
1697042380.1168463,358.0,-0.875,355.625,32.18910036417843,1009.4686070905581,37.53944091266021
1697042380.1750486,358.0,-0.875,355.625,31.511845200138207,1009.4484852430502,37.53944091266021
1697042380.2333856,358.0,-0.875,355.625,31.766499672187983,1009.428034877944,37.53944091266021
1697042380.2924454,358.0,-0.875,355.625,32.02116650580768,1009.4686070905581,37.54385586641729
1697042380.351201,358.0,-0.875,355.625,31.682532788701444,1009.3874626982501,37.53944091266021
1697042380.4103093,358.0,-0.875,355.625,32.18910036417843,1009.5396899551774,37.53944091266021
1697042380.472592,358.0,-0.875,355.625,32.18910036417843,1009.4079137765962,37.53502595424652
1697042380.5313625,358.0,-0.875,355.625,31.089265237051805,1009.4481558949949,37.53944091266021
1697042380.5898054,358.0,-0.875,243.625,30.921330799353598,1009.428034877944,37.53944091266021
1697042380.648252,358.0,-0.875,355.625,32.27306857363468,1009.3975228442359,37.53944091266021
1697042380.7068326,358.0,-0.875,355.625,32.10513300823773,1009.5396899551774,37.54385586641729
1697042380.7655165,358.0,-0.875,355.625,31.682532788701444,1009.4380953970076,37.54827081551775
1697042380.824328,358.0,-0.875,355.625,31.682532788701444,1009.5698748700742,37.54827081551775
1697042380.882758,358.0,-0.875,355.625,32.53053726082635,1009.3975228442359,37.54827081551775
1697042380.9416761,358.0,-0.875,355.625,31.427877082059947,1009.4887288537643,37.53944091266021
1697042381.0005171,358.0,-0.875,355.625,32.02116650580768,1009.5497516145546,37.54827081551775
1697042381.0593278,358.0,-0.875,355.625,31.93720085688826,1009.4481558949949,37.54385586641729
1697042381.1179156,6.0,-0.875,355.625,31.343909817507086,1009.4380953970076,37.53944091266021
1697042381.176354,358.0,-0.875,355.625,32.02116650580768,1009.4380953970076,37.54827081551775
1697042381.2348776,358.0,-0.875,355.625,30.58272893657515,1009.3569503243838,37.54827081551775
1697042381.2931623,358.0,-0.875,355.625,32.69846618092369,1009.4075829691469,37.54827081551775
1697042381.3518012,358.0,-0.875,355.625,31.93720085688826,1009.3468905514752,37.54827081551775
1697042381.4115293,358.0,-0.875,355.625,32.10513300823773,1009.3874626982501,37.54385586641729
1697042381.473955,358.0,-0.875,355.625,31.682532788701444,1009.3468905514752,37.54827081551775
1697042381.532793,358.0,-0.875,355.625,32.02116650580768,1009.3975228442359,37.552685759961605
1697042381.5913923,358.0,-0.875,355.625,31.682532788701444,1009.4481558949949,37.552685759961605
1697042381.649901,358.0,-0.875,355.625,31.17597784895789,1009.4481558949949,37.557100699748844
1697042381.7088082,358.0,-0.875,355.625,31.51460158226029,1009.4176430729817,37.557100699748844
1697042381.7677956,358.0,-0.875,355.625,31.85323606147949,1009.4075829691469,37.54385586641729
1697042381.8265495,358.0,-0.875,355.625,31.346673789851867,1009.4481558949949,37.54827081551775
1697042381.8848653,358.0,-0.875,355.625,31.7692721195666,1009.3465559105047,37.552685759961605
1697042381.9437246,358.0,-0.875,355.625,31.85323606147949,1009.458216371905,37.557100699748844
1697042382.0021586,358.0,-0.875,355.625,32.191881287402545,1009.3670100762188,37.56151563487947
1697042382.0610485,358.0,-0.875,355.625,31.51460158226029,1009.4277031557388,37.56151563487947
1697042382.119854,358.0,-0.875,355.625,31.85323606147949,1009.4176430729817,37.557100699748844
1697042382.1787088,358.0,-0.875,355.625,32.53053726082635,1009.4783372624869,37.54827081551775
1697042382.23749,358.0,-0.875,355.625,31.85323606147949,1009.3871295166621,37.54827081551775
1697042382.2958949,358.0,-0.875,355.625,31.685309031159434,1009.4277031557388,37.552685759961605
1697042382.3545125,358.0,-0.875,355.625,32.44657408102151,1009.3264372162088,37.557100699748844
1697042382.4138205,358.0,-0.875,355.625,31.85323606147949,1009.4277031557388,37.56151563487947
1697042382.47601,358.0,-0.875,355.625,32.191881287402545,1009.4176430729817,37.557100699748844
1697042382.5350416,358.0,-0.875,355.625,32.02395501917578,1009.3871295166621,37.54827081551775
1697042382.5940402,358.0,-0.875,355.625,31.685309031159434,1009.508850532656,37.56151563487947
1697042382.6527376,358.0,-0.875,355.625,31.7692721195666,1009.4277031557388,37.56593056535348
1697042382.7113526,358.0,-0.875,355.625,31.517385414822915,1009.4478232580136,37.56593056535348
1697042382.7699113,358.0,-0.875,355.625,32.44657408102151,1009.4277031557388,37.56593056535348
1697042382.8289025,358.0,-0.875,355.625,32.02395501917578,1009.4277031557388,37.56593056535348
1697042382.8874855,358.0,-0.875,355.625,32.02395501917578,1009.4883976761557,37.56593056535348
1697042382.9518876,358.0,-0.875,355.625,31.17597784895789,1009.4176430729817,37.54827081551775
1697042383.054295,358.0,-0.875,355.625,31.93720085688826,1009.4686070905581,37.54827081551775
1697042383.1146998,358.0,-0.875,355.625,31.7692721195666,1009.4176430729817,37.56151563487947
1697042383.1736822,358.0,-0.875,355.625,31.85323606147949,1009.3871295166621,37.56151563487947
1697042383.2320232,358.0,-0.875,355.625,31.685309031159434,1009.4377632174167,37.557100699748844
1697042383.290322,358.0,-0.875,355.625,31.685309031159434,1009.3465559105047,37.56593056535348
1697042383.348768,358.0,-0.875,355.625,31.939993165301303,1009.4478232580136,37.56151563487947
1697042383.4078624,358.0,-0.875,355.625,31.685309031159434,1009.5289721272212,37.56593056535348
1697042383.4705677,358.0,-0.875,355.625,31.685309031159434,1009.4984580687411,37.56593056535348
1697042383.529581,358.0,-0.875,355.625,31.685309031159434,1009.4377632174167,37.57034549117088
1697042383.5880063,358.0,-0.875,355.625,32.27865028186505,1009.4780032533049,37.579175328835845
1697042383.6467113,358.0,-0.875,355.625,31.939993165301303,1009.4578832775286,37.579175328835845
1697042383.7052968,358.0,-0.875,355.625,31.939993165301303,1009.5289721272212,37.56593056535348
1697042383.764913,358.0,-0.875,355.625,32.36261175470272,1009.5289721272212,37.57034549117088
1697042383.82637,358.0,-0.875,355.625,32.1946896625085,1009.3971892052676,37.56593056535348
1697042383.8852646,358.0,-0.875,355.625,31.517385414822915,1009.4578832775286,37.57476041233167
1697042383.9438553,358.0,-0.875,355.625,32.1946896625085,1009.4984580687411,37.57476041233167
1697042384.0019765,358.0,-0.875,355.625,31.349465212440414,1009.3666745204933,37.579175328835845
1697042384.0605848,358.0,-0.875,355.625,32.02395501917578,1009.4072488727936,37.57034549117088
1697042384.1192179,358.0,-0.875,355.625,32.5333579084018,1009.4377632174167,37.57034549117088
1697042384.1781404,358.0,-0.875,355.625,31.43342488688864,1009.4578832775286,37.57034549117088
1697042384.2368827,358.0,-0.875,355.625,32.27865028186505,1009.3666745204933,37.579175328835845
1697042384.2953758,358.0,-0.875,355.625,31.349465212440414,1009.3867930461627,37.56593056535348
1697042384.3537874,6.0,-0.875,355.625,31.942812925301038,1009.3666745204933,37.57034549117088
1697042384.4145694,358.0,-0.875,355.625,31.858855719839486,1009.3867930461627,37.58359024068341
1697042384.4766154,358.0,-0.875,355.625,32.02677098423388,1009.3867930461627,37.579175328835845
1697042384.535581,358.0,-0.875,355.625,31.85603216491287,1009.4578832775286,37.57476041233167
1697042384.593862,358.0,-0.875,355.625,32.11072989663309,1009.4679432759594,37.58359024068341
1697042384.6525598,358.0,-0.875,355.625,32.1946896625085,1009.4273681446003,37.58359024068341
1697042384.711333,358.0,-0.875,355.625,32.02677098423388,1009.3968522773736,37.579175328835845
1697042384.7704887,358.0,-0.875,355.625,31.858855719839486,1009.3867930461627,37.588005147874355
1697042384.8295093,358.0,-0.875,355.5625,32.02677098423388,1009.3867930461627,37.579175328835845
1697042384.8879502,358.0,-0.875,355.625,31.942812925301038,1009.3968522773736,37.588005147874355
1697042384.9478977,358.0,-0.875,355.625,31.858855719839486,1009.3864532867152,37.58359024068341
1697042385.006678,358.0,-0.875,355.625,32.11072989663309,1009.4679432759594,37.579175328835845
1697042385.0652165,358.0,-0.875,355.625,31.265506391468392,1009.3867930461627,37.58359024068341
1697042385.1238182,358.0,-0.875,355.625,31.942812925301038,1009.4069114874998,37.58359024068341
1697042385.1825514,358.0,-0.875,355.625,31.942812925301038,1009.3968522773736,37.59242005040869
1697042385.2407699,358.0,-0.875,355.625,31.942812925301038,1009.3968522773736,37.588005147874355
1697042385.2995305,358.0,-0.875,355.625,31.858855719839486,1009.4474873320704,37.58359024068341
1697042385.3578827,358.0,-0.875,355.625,31.858855719839486,1009.3562768387886,37.588005147874355
1697042385.4166958,358.0,-0.875,355.625,31.520196698155655,1009.3663356758494,37.58359024068341
1697042385.4780412,358.0,-0.875,355.625,31.942812925301038,1009.4069114874998,37.59242005040869
1697042385.5364292,358.0,-0.875,355.625,32.113569518838,1009.3763944918255,37.588005147874355
1697042385.5947857,358.0,-0.875,355.625,31.097591309962812,1009.4069114874998,37.59242005040869
1697042385.652985,358.0,-0.875,355.625,31.604154284629416,1009.4270298444926,37.59242005040869
1697042385.7114475,358.0,-0.875,355.625,32.19752548982589,1009.3458767618575,37.601249841507524
1697042385.7708077,358.0,-0.875,355.625,32.53620600890686,1009.4370889913562,37.59242005040869
1697042385.8300164,358.0,-0.875,355.625,31.1815484239775,1009.4981231447335,37.59242005040869
1697042385.88872,358.0,-0.875,355.625,32.36829568239727,1009.4270298444926,37.59242005040869
1697042385.9472873,358.0,-0.875,355.625,32.02961440130172,1009.3358183400304,37.596834948286414
1697042386.0056503,358.0,-0.875,355.625,32.113569518838,1009.4270298444926,37.596834948286414
1697042386.0641975,358.0,-0.875,355.625,32.28434179931497,1009.4270298444926,37.596834948286414
1697042386.123661,358.0,-0.875,355.625,32.113569518838,1009.5081830588136,37.596834948286414
1697042386.1822429,358.0,-0.875,355.625,31.77489936783938,1009.4270298444926,37.59242005040869
1697042386.2407227,358.0,-0.875,355.625,32.28434179931497,1009.4370889913562,37.58359024068341
1697042386.2992609,358.0,-0.875,355.625,31.69094386929581,1009.5283028236976,37.596834948286414
1697042386.3578017,358.0,-0.875,355.625,31.77489936783938,1009.3659935422504,37.601249841507524
1697042386.4165213,358.0,-0.875,355.625,31.013635049414496,1009.5081830588136,37.596834948286414
1697042386.4786706,358.0,-0.875,355.625,32.02961440130172,1009.3864532867152,37.596834948286414
1697042386.537381,358.0,-0.875,355.625,32.28434179931497,1009.5383626744982,37.59242005040869
1697042386.595885,358.0,-0.875,355.625,31.606989224213688,1009.4776659551175,37.59242005040869
1697042386.6545048,358.0,-0.875,355.625,31.861706726583996,1009.447148117129,37.596834948286414
1697042386.7132208,358.0,-0.875,355.625,32.36829568239727,1009.4370889913562,37.60566473007202
1697042386.7725005,358.0,-0.875,355.625,31.52303543258318,1009.447148117129,37.601249841507524
1697042386.831381,358.0,-0.875,355.625,30.84572508872189,1009.447148117129,37.601249841507524
1697042386.8896606,358.0,-0.875,355.625,31.52303543258318,1009.5182429518021,37.601249841507524
1697042386.948007,358.0,-0.875,355.625,32.02961440130172,1009.3965120605168,37.610079613979906
1697042387.0065887,358.0,-0.875,355.625,31.606989224213688,1009.4065708132292,37.601249841507524
1697042387.065216,358.0,-0.875,355.625,31.69094386929581,1009.4877254539513,37.601249841507524
1697042387.1239572,358.0,-0.875,355.625,31.439082494399358,1009.4166295448503,37.60566473007202
1697042387.1827435,358.0,-0.875,355.625,32.28434179931497,1009.447148117129,37.601249841507524
1697042387.24152,358.0,-0.875,355.625,31.606989224213688,1009.5484225042022,37.60566473007202
1697042387.2997484,358.0,-0.875,355.625,31.439082494399358,1009.447148117129,37.60566473007202
1697042387.3581367,358.0,-0.875,355.625,31.439082494399358,1009.4266882553784,37.610079613979906
1697042387.4168708,358.0,-0.875,355.625,31.52303543258318,1009.4065708132292,37.60566473007202
1697042387.4789896,358.0,-0.875,355.625,30.84572508872189,1009.4672663053957,37.601249841507524
1697042387.537917,358.0,-0.875,355.625,31.94566013721705,1009.4572072218093,37.61449449323118
1697042387.5966806,358.0,-0.875,355.625,31.355130409657313,1009.35559019743,37.610079613979906
1697042387.6549559,358.0,-0.875,355.625,31.439082494399358,1009.4977849316915,37.60566473007202
1697042387.7135296,358.0,-0.875,355.625,32.116436593475704,1009.3659935422504,37.61449449323118
1697042387.7723927,358.0,-0.875,355.625,32.28434179931497,1009.4266882553784,37.618909367825836
1697042387.8309479,358.0,-0.875,355.625,31.52303543258318,1009.4266882553784,37.61449449323118
1697042387.8894255,358.0,-0.875,355.625,32.03248527070889,1009.386110238283,37.60566473007202
1697042387.951037,358.0,-0.875,355.625,32.45512976745508,1009.4672663053957,37.60566473007202
1697042388.013619,358.0,-0.875,355.625,31.52303543258318,1009.4672663053957,37.610079613979906
1697042388.0823362,358.0,-0.875,355.625,32.02961440130172,1009.447148117129,37.59242005040869
1697042388.1795115,358.0,-0.875,355.625,31.77489936783938,1009.3864532867152,37.601249841507524
1697042388.2765868,358.0,-0.875,355.625,32.53620600890686,1009.3968522773736,37.59242005040869
1697042388.3741262,358.0,-0.875,355.625,31.69094386929581,1009.4676064351916,37.59242005040869
1697042388.4687953,358.0,-0.875,355.625,31.77489936783938,1009.5182429518021,37.618909367825836
1697042388.5279045,358.0,-0.875,355.625,31.52303543258318,1009.4672663053957,37.610079613979906
1697042388.5874581,358.0,-0.875,355.625,32.20038876967937,1009.4977849316915,37.610079613979906
1697042388.6461759,358.0,-0.875,355.625,32.20038876967937,1009.4367469448131,37.627739103045315
1697042388.7047281,358.0,-0.875,355.625,31.439082494399358,1009.5078443883365,37.610079613979906
1697042388.7633047,358.0,-0.875,355.625,32.03248527070889,1009.4873844092818,37.610079613979906
1697042388.8218143,358.0,-0.875,355.625,32.03248527070889,1009.4873844092818,37.618909367825836
1697042388.8807144,358.0,-0.875,355.625,32.03248527070889,1009.4568642603933,37.618909367825836
1697042388.9393713,358.0,-0.875,355.625,32.7098831313263,1009.4773253678873,37.61449449323118
1697042388.9984407,358.0,-0.875,355.625,32.7098831313263,1009.4974434295779,37.62332423776388
1697042389.0569293,358.0,-0.875,355.625,31.864585185466147,1009.3351269503733,37.627739103045315
1697042389.1158447,358.0,-0.875,355.625,31.864585185466147,1009.4773253678873,37.618909367825836
1697042389.1745684,358.0,-0.875,355.625,31.187228800503462,1009.3961685546612,37.627739103045315
1697042389.2332206,358.0,-0.875,355.625,32.03248527070889,1009.4468056131518,37.610079613979906
1697042389.291598,358.0,-0.875,355.625,31.187228800503462,1009.5075024287739,37.618909367825836
1697042389.3503375,358.0,-0.875,355.625,31.44195247497644,1009.3961685546612,37.627739103045315
1697042389.4090102,358.0,-0.875,355.625,31.94853480137401,1009.4263433772221,37.61449449323118
1697042389.4753435,358.0,-0.875,355.625,32.203279502393606,1009.3961685546612,37.618909367825836
1697042389.533962,358.0,-0.875,355.625,32.203279502393606,1009.4062268499448,37.618909367825836
1697042389.5921063,358.0,-0.875,355.625,32.458036569464454,1009.4468056131518,37.627739103045315
1697042389.6503873,358.0,-0.875,355.625,31.94853480137401,1009.466922886536,37.618909367825836
1697042389.7087495,358.0,-0.875,355.625,31.864585185466147,1009.4062268499448,37.632153963670135
1697042389.7672925,358.0,-0.875,355.625,31.525901618435064,1009.4062268499448,37.618909367825836
1697042389.8262737,358.0,-0.875,355.625,31.69668851391671,1009.3351269503733,37.618909367825836
1697042389.8851945,358.0,-0.875,355.625,31.78063642298038,1009.4263433772221,37.627739103045315
1697042389.9436703,6.0,-0.875,355.625,32.203279502393606,1009.466922886536,37.627739103045315
1697042390.0019069,358.0,-0.875,355.625,31.358004184944832,1009.4974434295779,37.632153963670135
1697042390.060228,358.0,-0.875,355.625,32.203279502393606,1009.4568642603933,37.632153963670135
1697042390.1192098,358.0,-0.875,355.625,32.374089422341584,1009.3351269503733,37.63656881963834
1697042390.1780624,358.0,-0.875,355.625,31.69668851391671,1009.4263433772221,37.627739103045315
1697042390.237069,358.0,-0.875,355.625,31.190110165147903,1009.5075024287739,37.63656881963834
1697042390.2958176,358.0,-0.875,355.625,31.528795256031064,1009.4263433772221,37.63656881963834
1697042390.3540404,358.0,-0.875,355.625,31.69668851391671,1009.466922886536,37.640983670949936
1697042390.4145548,358.0,-0.875,355.625,32.374089422341584,1009.4870400755193,37.63656881963834
1697042390.4758766,358.0,-0.875,355.625,31.69668851391671,1009.3958217597702,37.632153963670135
1697042390.5344481,358.0,-0.875,355.625,31.69668851391671,1009.4464598201033,37.63656881963834
1697042390.5933256,358.0,-0.875,355.625,32.374089422341584,1009.3652994080392,37.627739103045315
1697042390.6520345,358.0,-0.875,355.625,32.374089422341584,1009.4464598201033,37.63656881963834
1697042390.7136922,358.0,-0.875,355.625,32.03538359278497,1009.52762036386,37.63656881963834
1697042390.7770615,358.0,-0.875,355.625,31.528795256031064,1009.4464598201033,37.63656881963834
1697042390.8364244,358.0,-0.875,355.625,31.27405674834024,1009.4464598201033,37.632153963670135
1697042390.8955467,358.0,-0.875,355.625,31.358004184944832,1009.4464598201033,37.63656881963834
1697042390.9544382,358.0,-0.875,355.625,31.86749109681552,1009.4464598201033,37.63656881963834
1697042391.012682,358.0,-0.875,355.625,32.206197688298175,1009.52762036386,37.64539851760492
1697042391.0723593,358.0,-0.875,355.625,31.528795256031064,1009.4464598201033,37.640983670949936
1697042391.1312766,358.0,-0.875,355.625,31.86749109681552,1009.4159374143496,37.640983670949936
1697042391.1905315,358.0,-0.875,355.625,32.206197688298175,1009.4565180098912,37.63656881963834
1697042391.2491348,358.0,-0.875,355.625,32.206197688298175,1009.5477382145282,37.649813359603286
1697042391.3078024,358.0,-0.875,355.625,32.206197688298175,1009.4565180098912,37.640983670949936
1697042391.3661711,358.0,-0.875,355.625,31.86749109681552,1009.4565180098912,37.64539851760492
1697042391.4251075,358.0,-0.875,355.625,31.86749109681552,1009.37535685173,37.64539851760492
1697042391.487802,358.0,-0.875,355.625,31.86749109681552,1009.4565180098912,37.64539851760492
1697042391.5461252,358.0,-0.875,355.625,31.276961769772395,1009.3854142743204,37.649813359603286
1697042391.6047165,358.0,-0.875,355.625,31.86749109681552,1009.37535685173,37.640983670949936
1697042391.663082,358.0,-0.875,355.625,31.86749109681552,1009.4055290561897,37.64539851760492
1697042391.7217872,358.0,-0.875,355.625,30.935382787524496,1009.3652994080392,37.649813359603286
1697042391.7808146,358.0,-0.875,355.625,31.528795256031064,1009.37535685173,37.64539851760492
1697042391.8397973,358.0,-0.875,355.625,32.122253101377645,1009.3854142743204,37.63656881963834
1697042391.8983536,358.0,-0.875,355.625,31.86749109681552,1009.4665761785759,37.649813359603286
1697042391.9568594,358.0,-0.875,355.625,32.038309367854616,1009.4665761785759,37.640983670949936
1697042392.0153613,358.0,-0.875,355.625,31.69960201447543,1009.3448333715746,37.649813359603286
1697042392.0741146,358.0,-0.875,355.625,32.88364312648174,1009.4665761785759,37.64539851760492
1697042392.1328704,358.0,-0.875,355.625,32.37702747271414,1009.4461107379466,37.65422819694504
1697042392.191713,358.0,-0.875,355.625,32.038309367854616,1009.4866924526272,37.65422819694504
1697042392.2502944,358.0,-0.875,355.625,31.69960201447543,1009.4665761785759,37.65422819694504
1697042392.308477,358.0,-0.875,355.625,31.870424460971538,1009.3143091571447,37.65422819694504
1697042392.366968,358.0,-0.875,355.625,31.786483287611496,1009.4055290561897,37.658643029630184
1697042392.4256883,358.0,-0.875,355.625,32.29308497352703,1009.4055290561897,37.65422819694504
1697042392.4888132,358.0,-0.875,355.625,32.038309367854616,1009.4866924526272,37.65422819694504
1697042392.547482,358.0,-0.875,355.625,31.36090541178953,1009.4665761785759,37.65422819694504
1697042392.6061378,358.0,-0.875,355.625,30.854332366501147,1009.5879736625591,37.65422819694504
1697042392.6646192,358.0,-0.875,355.625,31.19301898115276,1009.4259952099869,37.65422819694504
1697042392.7231965,358.0,-0.875,355.625,31.19301898115276,1009.4461107379466,37.65422819694504
1697042392.782116,358.0,-0.875,355.625,31.870424460971538,1009.496750557991,37.658643029630184
1697042392.8409774,358.0,-0.875,355.625,31.53171634571551,1009.4461107379466,37.65422819694504
1697042392.8992927,358.0,-0.875,355.625,31.870424460971538,1009.4155864154662,37.65422819694504
1697042392.9578092,358.0,-0.875,355.625,31.870424460971538,1009.496750557991,37.65422819694504
1697042393.0163186,358.0,-0.875,355.625,31.69960201447543,1009.4561684702667,37.663057857658714
1697042393.0749118,358.0,-0.875,355.625,31.61565875339672,1009.4866924526272,37.663057857658714
1697042393.1340349,358.0,-0.875,355.625,31.870424460971538,1009.4155864154662,37.663057857658714
1697042393.1930048,358.0,-0.875,355.625,31.786483287611496,1009.5068086422451,37.65422819694504
1697042393.253304,358.0,-0.875,355.625,31.53171634571551,1009.4155864154662,37.671887499745935
1697042393.3118532,358.0,-0.875,355.625,31.786483287611496,1009.4055290561897,37.658643029630184
1697042393.370421,358.0,-0.875,355.625,31.53171634571551,1009.4155864154662,37.65422819694504
1697042393.43191,358.0,-0.875,355.625,31.954366487719245,1009.3954716758072,37.65422819694504
1697042393.516945,358.0,-0.875,355.625,31.69960201447543,1009.3854142743204,37.64539851760492
1697042393.603756,358.0,-0.875,355.625,31.36090541178953,1009.3954716758072,37.65422819694504
1697042393.666763,358.0,-0.875,355.625,31.69960201447543,1009.476634326155,37.658643029630184
1697042393.7257156,358.0,-0.875,355.625,32.63181421161206,1009.3850613587159,37.658643029630184
1697042393.784847,358.0,-0.875,355.625,31.702542967634194,1009.4662261814781,37.65422819694504
1697042393.8439002,358.0,-0.875,355.625,32.0412625962425,1009.4256437536355,37.658643029630184
1697042393.9022696,358.0,-0.875,355.625,31.702542967634194,1009.4256437536355,37.663057857658714
1697042393.960917,358.0,-0.875,355.625,31.786483287611496,1009.4662261814781,37.663057857658714
1697042394.0196476,358.0,-0.875,355.625,31.702542967634194,1009.4256437536355,37.671887499745935
1697042394.0782068,358.0,-0.875,355.625,31.702542967634194,1009.4256437536355,37.66747268103063
1697042394.1370494,358.0,-0.875,355.625,31.447774791417043,1009.3850613587159,37.671887499745935
1697042394.1959004,358.0,-0.875,355.625,31.786483287611496,1009.4457583666454,37.66747268103063
1697042394.25474,358.0,-0.875,355.625,32.21211642099174,1009.3645921175686,37.680717123206705
1697042394.313287,358.0,-0.875,355.625,32.296054272380815,1009.5068086422451,37.671887499745935
1697042394.3719585,358.0,-0.875,355.625,32.0412625962425,1009.4963991884448,37.663057857658714
1697042394.433619,358.0,-0.875,355.625,31.025135964101075,1009.5068086422451,37.66747268103063
1697042394.4921827,358.0,-0.875,355.625,32.0412625962425,1009.4357010706959,37.67630231380463
1697042394.5510285,358.0,-0.875,355.625,31.702542967634194,1009.4762838715795,37.66747268103063
1697042394.6098313,358.0,-0.875,355.625,31.363834090516075,1009.4051752256458,37.671887499745935
1697042394.6683075,358.0,-0.875,355.625,31.6186035010298,1009.4762838715795,37.67630231380463
1697042394.7270408,358.0,-0.875,355.625,32.37999297713788,1009.3645921175686,37.671887499745935
1697042394.7860954,358.0,-0.875,355.625,31.873385278253945,1009.4051752256458,37.663057857658714
1697042394.8451128,358.0,-0.875,355.625,31.6186035010298,1009.3645921175686,37.66747268103063
1697042394.9036648,358.0,-0.875,355.625,31.6186035010298,1009.4051752256458,37.671887499745935
1697042394.9621747,358.0,-0.875,355.625,31.36679022144421,1009.4863415405686,37.680717123206705
1697042395.020718,358.0,-0.875,355.625,31.53466488779831,1009.4457583666454,37.67630231380463
1697042395.0793762,358.0,-0.875,355.625,32.889610966481754,1009.3645921175686,37.67630231380463
1697042395.1384184,358.0,-0.875,355.625,32.21211642099174,1009.4457583666454,37.67630231380463
1697042395.1976147,358.0,-0.875,355.625,31.6186035010298,1009.465872895207,37.671887499745935
1697042395.2567093,358.0,-0.875,355.625,32.21211642099174,1009.4051752256458,37.67630231380463
1697042395.3155248,358.0,-0.875,355.625,31.789447899304268,1009.3035375444418,37.67630231380463
1697042395.3742461,358.0,-0.875,355.625,31.53466488779831,1009.4558156414829,37.680717123206705
1697042395.43573,358.0,-0.875,355.625,31.450727127939725,1009.3847051539814,37.680717123206705
1697042395.494408,358.0,-0.875,355.625,30.773317838913798,1009.4353458677056,37.671887499745935
1697042395.552812,358.0,-0.875,355.625,32.21211642099174,1009.4252890081325,37.68954672804102
1697042395.6121333,358.0,-0.875,355.625,31.873385278253945,1009.4558156414829,37.680717123206705
1697042395.6708746,358.0,-0.875,355.625,32.382985935927636,1009.3847051539814,37.680717123206705
1697042395.7293406,358.0,-0.875,355.625,31.028079820675696,1009.3847051539814,37.680717123206705
1697042395.7884448,358.0,-0.875,355.625,32.21211642099174,1009.3847051539814,37.68513192795217
1697042395.847162,358.0,-0.875,355.625,30.6893801706103,1009.3847051539814,37.680717123206705
1697042395.905642,358.0,-0.875,355.625,31.36679022144421,1009.4048181059426,37.680717123206705
1697042395.9639332,358.0,-0.875,355.625,32.466921699691504,1009.4454027061629,37.69396152347326
1697042396.0225136,358.0,-0.875,355.625,31.960307986958643,1009.3947616405193,37.68954672804102
1697042396.0816343,358.0,-0.875,355.625,31.70551137372258,1009.4859873393075,37.68954672804102
1697042396.1404047,358.0,-0.875,355.625,31.70551137372258,1009.4353458677056,37.68954672804102
1697042396.1993861,358.0,-0.8125,355.625,32.72173934743828,1009.3947616405193,37.68513192795217
1697042396.2586071,358.0,-0.875,355.625,32.63780481792671,1009.4454027061629,37.680717123206705
1697042396.317642,358.0,-0.8125,355.625,31.789447899304268,1009.5671567043754,37.68954672804102
1697042396.3785515,358.0,-0.875,355.625,32.215116968434984,1009.5265720053778,37.69396152347326
1697042396.4397676,358.0,-0.875,355.625,31.11498462213114,1009.4759301278157,37.68513192795217
1697042396.4987352,358.0,-0.875,355.625,31.960307986958643,1009.4048181059426,37.707205881830305
1697042396.557342,358.0,-0.875,355.625,32.04424327828311,1009.3541774462549,37.68954672804102
1697042396.6155894,358.0,-0.875,355.625,31.198918968547293,1009.5265720053778,37.69396152347326
1697042396.673755,358.0,-0.875,355.625,31.537640882618888,1009.4048181059426,37.68954672804102
1697042396.7337937,358.0,-0.875,355.625,31.537640882618888,1009.3236490042677,37.68954672804102
1697042396.7924197,358.0,-0.875,355.625,31.792439964359552,1009.4048181059426,37.702791100367904
1697042396.8514626,358.0,-0.875,355.625,31.198918968547293,1009.4859873393075,37.68954672804102
1697042396.9097977,358.0,-0.875,355.625,31.876373548987402,1009.4048181059426,37.68954672804102
1697042396.9683857,358.0,-8.875,355.625,31.876373548987402,1009.4554595235037,37.69396152347326
1697042397.026752,358.0,-0.875,355.625,31.198918968547293,1009.4249309734406,37.69837631424889
1697042397.0853972,358.0,-0.875,355.625,31.537640882618888,1009.4148745502507,37.68954672804102
1697042397.143899,358.0,-0.875,355.625,31.876373548987402,1009.4249309734406,37.69396152347326
1697042397.2029815,358.0,-0.875,355.625,31.792439964359552,1009.4249309734406,37.69837631424889
1697042397.2613053,358.0,-0.875,355.625,31.876373548987402,1009.455100116292,37.702791100367904
1697042397.3197024,358.0,-0.875,355.625,32.386006349417904,1009.4755730948269,37.707205881830305
1697042397.3781846,358.0,-0.875,355.625,31.198918968547293,1009.5061016989351,37.69837631424889
1697042397.4398475,358.0,-0.875,355.625,30.863186702982368,1009.5366295687855,37.69396152347326
1697042397.4990344,358.0,-0.875,355.625,31.708507233070172,1009.4148745502507,37.71162065863609
1697042397.5575182,358.0,-0.875,355.625,31.62457535511434,1009.4249309734406,37.702791100367904
1697042397.616045,358.0,-0.875,355.625,32.215116968434984,1009.5061016989351,37.69837631424889
1697042397.674397,358.0,-0.875,355.625,31.540644330501905,1009.4249309734406,37.707205881830305
1697042397.7328897,358.0,-0.875,355.625,31.453706917096884,1009.5567446322354,37.707205881830305
1697042397.7919803,358.0,-0.875,355.625,31.28584154608305,1009.3638716705464,37.702791100367904
1697042397.8508172,358.0,-0.875,355.625,31.879389273501495,1009.5466871110716,37.71162065863609
1697042397.9101453,358.0,-0.875,355.625,31.879389273501495,1009.4349873755118,37.71162065863609
1697042397.969036,358.0,-0.875,355.625,31.879389273501495,1009.5463301647216,37.707205881830305
1697042398.0271502,358.0,-0.875,355.625,31.540644330501905,1009.4249309734406,37.69396152347326
1697042398.0856433,358.0,-0.875,355.625,31.540644330501905,1009.455100116292,37.71162065863609
1697042398.1444373,358.0,-0.8125,355.625,32.21814497038689,1009.4145136838451,37.707205881830305
1697042398.2032874,358.0,-0.8125,355.625,31.62457535511434,1009.3739272843214,37.71603543078527
1697042398.2620296,358.0,-0.8125,355.625,32.13421556084712,1009.5768596111898,37.707205881830305
1697042398.3206546,358.0,-0.8125,355.625,31.201910140591217,1009.4651564549971,37.71162065863609
1697042398.3792334,358.0,-0.8125,355.625,31.540644330501905,1009.3839828769742,37.72045019827783
1697042398.4403088,358.0,-0.8125,355.625,31.792439964359552,1009.3437603796401,37.707205881830305
1697042398.5001316,358.0,-0.8125,355.625,31.96331991723454,1009.3839828769742,37.71603543078527
1697042398.5661483,358.0,-0.8125,355.625,31.876373548987402,1009.4859873393075,37.68954672804102
1697042398.673628,358.0,-0.8125,355.625,31.453706917096884,1009.4454027061629,37.707205881830305
1697042398.734269,358.0,-0.8125,355.625,32.21814497038689,1009.4655163197253,37.702791100367904
1697042398.7932768,358.0,-0.8125,355.625,31.540644330501905,1009.5362730799627,37.71603543078527
1697042398.8522987,358.0,-0.8125,355.625,31.45671415921318,1009.4651564549971,37.707205881830305
1697042398.9107845,358.0,-0.8125,355.625,31.540644330501905,1009.4651564549971,37.71603543078527
1697042398.9694355,358.0,-0.8125,355.625,31.37278484125309,1009.4651564549971,37.71162065863609
1697042399.028054,358.0,-0.8125,355.625,31.37278484125309,1009.4651564549971,37.71603543078527
1697042399.0869598,358.0,-0.8125,355.625,32.97961813002869,1009.4651564549971,37.71603543078527
1697042399.1458118,358.0,-0.8125,355.625,31.117979588432938,1009.3839828769742,37.71603543078527
1697042399.2047112,358.0,-0.8125,355.625,32.050287004626135,1009.3839828769742,37.71603543078527
1697042399.2636383,358.0,-0.8125,355.625,31.795459483092166,1009.4752127725774,37.72486496111378
1697042399.3221724,358.0,-0.8125,355.625,31.37278484125309,1009.485269069031,37.72486496111378
1697042399.38078,358.0,-0.8125,355.625,31.96635930172395,1009.3940384485051,37.73369447281584
1697042399.4468746,358.0,-0.8125,355.625,31.45671415921318,1009.5664442708562,37.72486496111378
1697042399.5063176,358.0,-0.8125,355.625,31.28885637662163,1009.4651564549971,37.72927971929312
1697042399.5647619,358.0,-0.8125,355.625,31.882432452125805,1009.4040939989117,37.72486496111378
1697042399.6235929,358.0,-0.8125,355.625,31.882432452125805,1009.4040939989117,37.72486496111378
1697042399.6818812,358.0,-0.8125,355.625,32.050287004626135,1009.4040939989117,37.73369447281584
1697042399.7403953,358.0,-0.8125,355.625,31.882432452125805,1009.485269069031,37.72045019827783
1697042399.7990434,358.0,-0.8125,355.625,32.22120042716229,1009.4446815175089,37.72927971929312
1697042399.8577425,358.0,-0.8125,355.625,31.543675231772024,1009.485269069031,37.73369447281584
1697042399.9160178,358.0,-0.8125,355.625,31.543675231772024,1009.4242050363455,37.72486496111378
1697042399.974527,358.0,-0.8125,355.625,31.204928765304047,1009.3836168046295,37.73810922168195
1697042400.0328686,358.0,-0.8125,355.625,31.204928765304047,1009.3735616694962,37.72486496111378
1697042400.091381,358.0,-0.8125,355.625,32.22120042716229,1009.3635065132376,37.73369447281584
1697042400.1503553,358.0,-0.8125,355.625,31.204928765304047,1009.4242050363455,37.72486496111378
1697042400.209038,358.0,-0.8125,355.625,30.866193051934815,1009.485269069031,37.73369447281584
1697042400.2682264,358.0,-0.8125,355.625,31.882432452125805,1009.5560265351305,37.73369447281584
1697042400.3269737,358.0,-0.8125,355.625,32.22120042716229,1009.4342605233701,37.74252396589145
1697042400.386534,358.0,-0.8125,355.625,30.44354057117379,1009.4242050363455,37.72927971929312
1697042400.4486344,358.0,-0.8125,355.625,31.798506455836613,1009.4141495281921,37.73369447281584
1697042400.508062,358.0,-0.8125,355.625,32.1372748117279,1009.505381598552,37.72927971929312
1697042400.566726,358.0,-0.8125,355.625,32.1372748117279,1009.4242050363455,37.73369447281584
1697042400.625464,358.0,-0.8125,355.625,32.05335004959262,1009.5459699290456,37.72927971929312
1697042400.6839888,358.0,-0.8125,355.625,32.559979157663626,1009.4849049999424,37.73369447281584
1697042400.7427125,358.0,-0.8125,355.625,31.037076102620347,1009.3836168046295,37.73369447281584
1697042400.8013484,358.0,-0.8125,355.625,31.882432452125805,1009.495325344356,37.73369447281584
1697042400.8603103,358.0,-0.8125,355.625,32.05335004959262,1009.505381598552,37.73810922168195
1697042400.9190533,358.0,-0.8125,355.625,31.375823330788084,1009.4443159892637,37.73369447281584
1697042400.9776928,358.0,-0.8125,355.625,31.798506455836613,1009.5154378316163,37.73369447281584
1697042401.0373626,358.0,-0.8125,355.625,31.459748854628035,1009.4443159892637,37.74252396589145
1697042401.0964997,358.0,-0.8125,355.625,31.71458131285146,1009.5355502343447,37.73810922168195
1697042401.1553273,358.0,-0.8125,355.625,31.71458131285146,1009.4242050363455,37.73810922168195
1697042401.2138226,358.0,-0.8125,355.625,32.39212954180847,1009.4342605233701,37.73369447281584
1697042401.2724383,358.0,-0.8125,355.625,31.630657023160506,1009.4647933009858,37.74252396589145
